timestamp,time_s,x_disp,y_disp,z_disp,x_pos,y_pos,z_pos,vx,vy,vz,roll,pitch,yaw
2025-01-01T12:00:00.006667,0.0,0.04000028759735392,-2.213586290878097e-06,-5.9712689944865475e-09,0.04000028759735392,-2.213586290878097e-06,-5.9712689944865475e-09,5.999263256921864,-0.0005976830839730643,-0.00031807812271697424,0.006168300943860672,0.0037465177510256353,0.008674017984468652
2025-01-01T12:00:00.013333,0.006666,0.07999345392375208,2.0221944418576416e-06,-2.174846834821659e-06,0.07999345392375208,2.0221944418576416e-06,-2.174846834821659e-06,5.998683849156643,0.001883962734419319,0.0006826951103294487,-0.004527668717301481,-0.0009044154277959571,0.005759270910469905
2025-01-01T12:00:00.020000,0.013333,0.11999581813110222,1.281699600918605e-05,-1.9631232426320877e-07,0.11999581813110222,1.281699600918605e-05,-1.9631232426320877e-07,6.001740252066074,0.0010311037728572624,0.0001382209458023157,-0.004789852807083772,0.0009871036157105273,0.005737590165479034
2025-01-01T12:00:00.026667,0.02,0.1599876070445494,1.8477924301182128e-05,1.6879505924667665e-06,0.1599876070445494,1.8477924301182128e-05,1.6879505924667665e-06,5.999909317728585,2.4328159344212306e-05,-0.0005952514773820158,-0.006118468075292149,-0.007482785393261526,0.0052075129157493905
2025-01-01T12:00:00.033333,0.026666,0.19999441066163082,1.6866926411196715e-05,9.968856908190238e-08,0.19999441066163082,1.6866926411196715e-05,9.968856908190238e-08,6.000682127348444,0.0010803421140033083,-0.0001449365369498034,-0.005030767807138847,-0.005526961718855805,0.0023733158402210464
2025-01-01T12:00:00.040000,0.033333,0.23998103508547186,-4.056034819147606e-06,9.432883227037892e-07,0.23998103508547186,-4.056034819147606e-06,9.432883227037892e-07,5.999304417593138,-0.0016733213691676534,-0.00047615323555821366,-0.0013818440147943534,-0.007919884111421194,0.004085866330179488
2025-01-01T12:00:00.046667,0.04,0.27998955307493384,1.4881629593185704e-05,6.032266771978168e-06,0.27998955307493384,1.4881629593185704e-05,6.032266771978168e-06,5.999800547201375,0.000738330583485597,-0.0023313884328372745,-0.004100302756251839,-0.005572860335584462,0.002234623649891798
2025-01-01T12:00:00.053333,0.046666,0.320021788954002,3.711694434035417e-05,9.387816958562503e-06,0.320021788954002,3.711694434035417e-05,9.387816958562503e-06,6.001952266860188,0.0013038401911769524,-0.003804655269634355,-0.005633653393430915,-0.0033344281583134183,0.0030090130900402023
2025-01-01T12:00:00.060000,0.053333,0.3599880276805607,3.3472744727684497e-05,9.01789809395026e-06,0.3599880276805607,3.3472744727684497e-05,9.01789809395026e-06,6.001049724731151,0.0019549714082531785,-0.0041595883700656444,-0.004606297940428217,-0.006236012233086008,0.0005986182946191576
2025-01-01T12:00:00.066667,0.06,0.40001440874267646,9.955868587288976e-06,1.4572490440113416e-05,0.40001440874267646,9.955868587288976e-06,1.4572490440113416e-05,6.001034820345282,0.002253462377381651,-0.006468292415480283,-0.0025298638482085245,-0.005106956509299376,-0.0004920790660096763
2025-01-01T12:00:00.073333,0.066666,0.4400042465966251,9.758865568301204e-06,6.362644432945183e-06,0.4400042465966251,9.758865568301204e-06,6.362644432945183e-06,6.000061105784931,0.002755448806213791,-0.004402929543842255,-0.0014803967564449572,-0.006343019343403533,6.10958650519855e-05
2025-01-01T12:00:00.080000,0.073333,0.48001388908306464,-5.767096284055454e-05,7.659824339282127e-07,0.48001388908306464,-5.767096284055454e-05,7.659824339282127e-07,6.000102507168113,0.00027342993971555575,-0.0029771170640240634,0.0015253232725758181,-0.005998347495738354,-0.001442815583195145
2025-01-01T12:00:00.086667,0.08,0.5199784978729124,-8.19127967385481e-05,8.546250712118522e-06,0.5199784978729124,-8.19127967385481e-05,8.546250712118522e-06,6.0007220813768045,-0.0023254719134145913,-0.005748997543289558,0.0024995270250207646,-0.005536499080999846,-0.0010079325879339684
2025-01-01T12:00:00.093333,0.086666,0.5600267716928435,-2.432953208422174e-05,3.8193910381650665e-06,0.5600267716928435,-2.432953208422174e-05,3.8193910381650665e-06,6.000764701256289,-0.0012235842301351336,-0.004656360202323934,0.0003162647324250756,-0.004148306924844913,-0.0021717347619736316
2025-01-01T12:00:00.100000,0.093333,0.6000241543127289,1.6226592046450233e-05,5.92424829065749e-06,0.6000241543127289,1.6226592046450233e-05,5.92424829065749e-06,6.000358436197836,-0.001591376684960717,-0.005660409547190922,9.446685594660664e-05,-0.004328975140633684,-0.003257911902518895
2025-01-01T12:00:00.106667,0.1,0.6400158629490109,-2.378623360973367e-05,7.993777618475752e-06,0.6400158629490109,-2.378623360973367e-05,7.993777618475752e-06,6.000416349629166,-0.0018324795567926319,-0.006692106314696502,0.0012401221452074118,-0.004950156697389296,-0.003997782816521855
2025-01-01T12:00:00.113333,0.106666,0.6800004615952947,3.075787767873897e-05,1.36186607163098e-05,0.6800004615952947,3.075787767873897e-05,1.36186607163098e-05,5.998321763999173,-0.0004550557408952154,-0.008895312413755676,0.0001221126895956104,-0.00455124787007799,-0.002116031960694098
2025-01-01T12:00:00.120000,0.113333,0.7200246852620272,8.151177259008453e-05,9.293509584506015e-06,0.7200246852620272,8.151177259008453e-05,9.293509584506015e-06,5.999501873209534,0.0029561814489957464,-0.008037028534638278,-0.0009483285394980001,-0.004126972280622976,-0.0013131903738927697
2025-01-01T12:00:00.126667,0.12,0.7600250248345036,9.028156335510212e-05,8.525843626842338e-06,0.7600250248345036,9.028156335510212e-05,8.525843626842338e-06,5.997206850052845,0.00387894717097391,-0.008236471130606037,-0.0015273076391162377,-0.003540490989024203,-0.00023919162036145636
2025-01-01T12:00:00.133333,0.126666,0.800045693840589,7.186513138614243e-05,9.951771143780701e-06,0.800045693840589,7.186513138614243e-05,9.951771143780701e-06,6.001240994622596,0.004384379458802707,-0.009118819254151221,-0.0014582068807542647,-0.003150902768418895,-0.002103070554341002
2025-01-01T12:00:00.140000,0.133333,0.8400288067306315,6.471452229483049e-05,6.4829847194982135e-06,0.8400288067306315,6.471452229483049e-05,6.4829847194982135e-06,6.001879473845389,0.0004954346753672369,-0.008481406867712775,-0.0022580136186682864,-0.0027302399499800067,-0.0007852103379097919
2025-01-01T12:00:00.146667,0.14,0.879966890109676,3.2801691205197557e-06,1.968039520902886e-06,0.879966890109676,3.2801691205197557e-06,1.968039520902886e-06,6.0032102940502945,-0.0016338424088822032,-0.0074701583806884774,-0.0020912362947371754,-0.0035813780256352956,3.255079346553558e-05
2025-01-01T12:00:00.153333,0.146666,0.9199165474925972,-0.00019717561666437617,3.3335028959646074e-07,0.9199165474925972,-0.00019717561666437617,3.3335028959646074e-07,6.00264287221627,-0.004911950299416143,-0.007300051229469301,-0.0007515625583240926,-0.004347459620599459,-0.0009634921746983771
2025-01-01T12:00:00.160000,0.153333,0.9599348235053561,-0.00019297085000719217,-5.171666871638594e-06,0.9599348235053561,-0.00019297085000719217,-5.171666871638594e-06,6.002447658808927,-0.004755890447176804,-0.0058985571087696535,-0.0012890187375695916,-0.0044261489888079986,-0.0016175040275050456
2025-01-01T12:00:00.166667,0.16,0.9998395109416807,-0.00017882783443885729,-8.6098534971573e-06,0.9998395109416807,-0.00017882783443885729,-8.6098534971573e-06,5.999311732743498,-0.005048117641053346,-0.005077752547088213,-0.001398081183390687,-0.005510425145145881,-0.002450323941752597
2025-01-01T12:00:00.173333,0.166666,1.039894952021232,-0.0002680482744154302,-5.7870786619795085e-06,1.039894952021232,-0.0002680482744154302,-5.7870786619795085e-06,6.000674276695899,-0.006531109076681657,-0.006166963967128025,-0.0009621483439983258,-0.0052162185329640565,-0.0032763064538445796
2025-01-01T12:00:00.180000,0.173333,1.0801225715165852,-0.00013416133734229195,-6.362852770231814e-06,1.0801225715165852,-0.00013416133734229195,-6.362852770231814e-06,6.000958342685445,-0.0036240990779194287,-0.006237306899043318,-0.0018997218051981513,-0.0039088628802947945,-0.0036283823623266542
2025-01-01T12:00:00.186667,0.18,1.120063499602409,-0.00019886272608935401,-8.697326699855999e-06,1.120063499602409,-0.00019886272608935401,-8.697326699855999e-06,5.999377699059844,-0.0050693803604225105,-0.0057524411314945015,-0.0013716417194387098,-0.004447486062664652,-0.003589900348902386
2025-01-01T12:00:00.193333,0.186666,1.1598709248515946,-0.0003220083440910631,-1.0668165287550323e-05,1.1598709248515946,-0.0003220083440910631,-1.0668165287550323e-05,5.997114460122529,-0.007686249864589375,-0.005354852497333544,-0.0009348706747078772,-0.004923626416160953,-0.004747442302660332
2025-01-01T12:00:00.200000,0.193333,1.1999358927875772,-0.00030231828787982863,-9.524316042013244e-06,1.1999358927875772,-0.00030231828787982863,-9.524316042013244e-06,6.00166115124312,-0.007812815581546919,-0.005911816091138377,-0.0007639769798415408,-0.004565029333075898,-0.007329024775534876
2025-01-01T12:00:00.206667,0.2,1.2400831199558422,-0.00043533121717381383,-7.707834803196337e-06,1.2400831199558422,-0.00043533121717381383,-7.707834803196337e-06,6.00238191098444,-0.007947675988925934,-0.00668924963654793,-5.395314423362052e-05,-0.003740522013384151,-0.007817139473055956
2025-01-01T12:00:00.213333,0.206666,1.2800959394459235,-0.0003032030016668517,-1.3041430254788367e-05,1.2800959394459235,-0.0003032030016668517,-1.3041430254788367e-05,6.003407839079045,-0.005971019913638197,-0.00527607453524937,-0.0008318194589884698,-0.0035947269547365046,-0.00861726745326541
2025-01-01T12:00:00.220000,0.213333,1.3203838426721328,-0.00044334530724035365,-1.2760307389502063e-05,1.3203838426721328,-0.00044334530724035365,-1.2760307389502063e-05,6.004905854253492,-0.007062611351761461,-0.005545167728092014,-0.0008568272270199628,-0.0023191184339701465,-0.008734151530539247
2025-01-01T12:00:00.226667,0.22,1.3604410002303793,-0.0007031780390731096,-2.037191322654939e-05,1.3604410002303793,-0.0007031780390731096,-2.037191322654939e-05,6.006202738082108,-0.009345977639548676,-0.003370808450452462,-0.00039739636275815116,-0.002774079821935338,-0.008536231694161955
2025-01-01T12:00:00.233333,0.226666,1.4002951076633636,-0.0007483199263649905,-2.1192845547146168e-05,1.4002951076633636,-0.0007483199263649905,-2.1192845547146168e-05,6.002227468790739,-0.0073442642667579236,-0.003232610359121977,-0.0008672118961667863,-0.004081932729421922,-0.008567518826525067
2025-01-01T12:00:00.240000,0.233333,1.4401819513914662,-0.000767380887407943,-2.6146641370391685e-05,1.4401819513914662,-0.000767380887407943,-2.6146641370391685e-05,6.000613799071555,-0.00769752498990609,-0.0018063256032289934,-0.0002292649717685613,-0.004537407203965227,-0.008526289003039533
2025-01-01T12:00:00.246667,0.24,1.4803261779674397,-0.0006055546937267122,-1.759895524188281e-05,1.4803261779674397,-0.0006055546937267122,-1.759895524188281e-05,6.002160514763949,-0.003833966359536033,-0.004518135771175005,-0.0007742540300483824,-0.004784020521234389,-0.00793334459962125
2025-01-01T12:00:00.253333,0.246666,1.5202970279350005,-0.00043094353007485265,-1.587507524175628e-05,1.5202970279350005,-0.00043094353007485265,-1.587507524175628e-05,6.002307798670325,-0.0020642375781675707,-0.005203970589720759,-0.0018035508394409483,-0.00434451198890029,-0.007629109287154545
2025-01-01T12:00:00.260000,0.253333,1.5604850859267985,-0.0001911234424847186,-2.0953479725371024e-05,1.5604850859267985,-0.0001911234424847186,-2.0953479725371024e-05,6.004531062614169,-0.00038553694142016417,-0.0038021584785327663,-0.003309383461644,-0.003430651486800773,-0.0075484130292977625
2025-01-01T12:00:00.266667,0.26,1.6007178535455677,-0.0003294448920224234,-2.7099057217833335e-05,1.6007178535455677,-0.0003294448920224234,-2.7099057217833335e-05,6.0058050948712065,-0.001169406400463764,-0.0020216672843580137,-0.002427780999326501,-0.0036348067823759322,-0.007425969840613611
2025-01-01T12:00:00.273333,0.266666,1.6411454800290979,-0.00048739776596632073,-2.2371517802274694e-05,1.6411454800290979,-0.00048739776596632073,-2.2371517802274694e-05,6.007823192297052,-0.0004156546069981862,-0.0035524820611390596,-0.0027852165951167684,-0.0021737110148110084,-0.0073870079978908265
2025-01-01T12:00:00.280000,0.273333,1.6813192004351611,-0.0004012608317171464,-2.7658674710054068e-05,1.6813192004351611,-0.0004012608317171464,-2.7658674710054068e-05,6.01055321590008,0.00040129786775162414,-0.002029319207923281,-0.003625200512781923,-0.001984854898121835,-0.007223406190687509
2025-01-01T12:00:00.286667,0.28,1.7215155826420503,-0.0006340907673815401,-2.802970672877801e-05,1.7215155826420503,-0.0006340907673815401,-2.802970672877801e-05,6.012223768379142,-6.243428711591946e-05,-0.001980939488853198,-0.0031782340085912963,-0.0017949319507422068,-0.008505526760905102
2025-01-01T12:00:00.293333,0.286666,1.7616474175138732,-0.0007074143193002803,-2.661805508309877e-05,1.7616474175138732,-0.0007074143193002803,-2.661805508309877e-05,6.0134157177155165,-0.0021685647304384025,-0.00248201979130195,-0.0033295719298656046,-0.0003523898859443264,-0.009743946531768799
2025-01-01T12:00:00.300000,0.293333,1.8019310196851677,-0.0008574952523620052,-1.827887300901667e-05,1.8019310196851677,-0.0008574952523620052,-1.827887300901667e-05,6.016249476819058,-0.004217458045878398,-0.005142395749586985,-0.002505052687618914,-0.0007044161189195819,-0.009580022505905728
2025-01-01T12:00:00.306667,0.3,1.8422461619179848,-0.0006769570126655691,-2.0446699922867237e-05,1.8422461619179848,-0.0006769570126655691,-2.0446699922867237e-05,6.016665519428242,-0.0014770114907233058,-0.00463458383583426,-0.003055135983426549,-0.00019290330148358237,-0.009139160826985737
2025-01-01T12:00:00.313333,0.306666,1.8824151244366776,-0.0008375216869961024,-2.319228091644373e-05,1.8824151244366776,-0.0008375216869961024,-2.319228091644373e-05,6.018336493790471,-0.0030774876973431436,-0.003933432237675279,-0.002452043197199494,0.0009085716096395302,-0.009424199562014124
2025-01-01T12:00:00.320000,0.313333,1.9225685556467504,-0.001238221731684208,-2.4779675709740407e-05,1.9225685556467504,-0.001238221731684208,-2.4779675709740407e-05,6.0177193612758515,-0.0045852595146417385,-0.0035696070507154312,-0.0023923861947139358,0.00022710442830931044,-0.009673558180796515
2025-01-01T12:00:00.326667,0.32,1.9629075241886926,-0.0011496088916843612,-2.430451090599205e-05,1.9629075241886926,-0.0011496088916843612,-2.430451090599205e-05,6.020260528706344,-0.0032325135181866956,-0.0038291503395616335,-0.00258475160331173,0.0012470020207824284,-0.0075359683048721315
2025-01-01T12:00:00.333333,0.326666,2.002955780567322,-0.001391287666198496,-2.49424505542809e-05,2.002955780567322,-0.001391287666198496,-2.49424505542809e-05,6.019166297934184,-0.005437308295617966,-0.0037565592145098387,-0.0020382590579983706,0.002308741936854375,-0.007338881294679744
2025-01-01T12:00:00.340000,0.333333,2.04344555817656,-0.001734886254346148,-2.4559999729336082e-05,2.04344555817656,-0.001734886254346148,-2.4559999729336082e-05,6.023598007751589,-0.0062478874029124835,-0.003993192065978116,-0.001289869259486487,0.0029747973363472013,-0.00731890008981928
2025-01-01T12:00:00.346667,0.34,2.083594321443425,-0.0017439446784751442,-1.9794461064825676e-05,2.083594321443425,-0.0017439446784751442,-1.9794461064825676e-05,6.0225767687305956,-0.005980420892963204,-0.005598552028703901,-0.0011712360867557337,0.0033808492472719998,-0.006908922969307341
2025-01-01T12:00:00.353333,0.346666,2.123819257363122,-0.001855724326404233,-2.576467060361916e-05,2.123819257363122,-0.001855724326404233,-2.576467060361916e-05,6.022921938328698,-0.0056529157031454625,-0.003930785484926477,-0.000782165278914615,0.005210328412930121,-0.007087398590527538
2025-01-01T12:00:00.360000,0.353333,2.1641962097730647,-0.002126305878435433,-2.7875476223853436e-05,2.1641962097730647,-0.002126305878435433,-2.7875476223853436e-05,6.023445745994368,-0.008472463847650387,-0.0034035863173026005,0.0003314793912676528,0.005763231101656885,-0.006893801574127778
2025-01-01T12:00:00.366667,0.36,2.2044280423497455,-0.002076748697914323,-2.357383834988444e-05,2.2044280423497455,-0.002076748697914323,-2.357383834988444e-05,6.024534579580221,-0.007868920854325556,-0.004846418731382129,0.0016104796659766052,0.004955258978240451,-0.008240853862339304
2025-01-01T12:00:00.373333,0.366666,2.2448041732325223,-0.0018357415658164888,-2.6310796030164996e-05,2.2448041732325223,-0.0018357415658164888,-2.6310796030164996e-05,6.026905713214803,-0.005608316884391383,-0.00415417960872109,0.0002934684111113306,0.004865022840896405,-0.00731260904566744
2025-01-01T12:00:00.380000,0.373333,2.284722622523349,-0.001566259125745233,-3.085258360629656e-05,2.284722622523349,-0.001566259125745233,-3.085258360629656e-05,6.026884405041665,-0.003652106700535623,-0.0028852090987123214,-0.0008671232861980904,0.005103714669431714,-0.006869454650441753
2025-01-01T12:00:00.386667,0.38,2.3252317461329297,-0.0012191591300262177,-3.771977349601989e-05,2.3252317461329297,-0.0012191591300262177,-3.771977349601989e-05,6.027965760508338,-0.0015576044899295893,-0.0008479372020681521,-0.0023768642140313823,0.004247115040548088,-0.006822902610681858
2025-01-01T12:00:00.393333,0.386666,2.365214003513937,-0.0011057599132298457,-4.0668270496658266e-05,2.365214003513937,-0.0011057599132298457,-4.0668270496658266e-05,6.027523080865812,-0.0023937000966835916,3.59131870122484e-05,-0.0013021507031099055,0.004761158432136092,-0.005855948920918674
2025-01-01T12:00:00.400000,0.393333,2.405599684823087,-0.0011408260376008124,-4.562617568356186e-05,2.405599684823087,-0.0011408260376008124,-4.562617568356186e-05,6.029856244992795,-0.0025299645151790314,0.0015758480459120388,-0.0009680015215618454,0.0042978475717943,-0.005993552907687327
2025-01-01T12:00:00.406667,0.4,2.445442625317517,-0.0014789857445140313,-4.952218200466406e-05,2.445442625317517,-0.0014789857445140313,-4.952218200466406e-05,6.027322468851695,-0.006036478613595884,0.002833115810566325,0.0003110336672320635,0.004377350540450298,-0.005918444125765365
2025-01-01T12:00:00.413333,0.406666,2.485634433952966,-0.0015022964373699764,-5.289959838036312e-05,2.485634433952966,-0.0015022964373699764,-5.289959838036312e-05,6.028838250506826,-0.0046106092988184594,0.0039745211756197565,-5.917518946496614e-05,0.004435586835000116,-0.0061660090559039205
2025-01-01T12:00:00.420000,0.413333,2.5258167174632025,-0.0019961424169209793,-5.4961249554032215e-05,2.5258167174632025,-0.0019961424169209793,-5.4961249554032215e-05,6.0296138181056085,-0.004400717856572863,0.004744957772450821,0.0010929247810027576,0.004445862809020262,-0.007953376108863708
2025-01-01T12:00:00.426667,0.42,2.565623092406499,-0.0015084091160645057,-5.2626648416572586e-05,2.565623092406499,-0.0015084091160645057,-5.2626648416572586e-05,6.0284402833148105,-0.0010858320246362367,0.00417781856718309,0.0011311238475117946,0.0037981608802124533,-0.008332097693171114
2025-01-01T12:00:00.433333,0.426666,2.6055069140413827,-0.0017403094271423352,-3.9305292135064536e-05,2.6055069140413827,-0.0017403094271423352,-3.9305292135064536e-05,6.025836859747626,-0.00207583219139185,0.00018393656899546318,0.0011444542769845079,0.0032362766047362435,-0.009972286799926788
2025-01-01T12:00:00.440000,0.433333,2.6455053260645567,-0.001330821103479784,-3.3150451306187455e-05,2.6455053260645567,-0.001330821103479784,-3.3150451306187455e-05,6.026894385433315,0.000295032754153028,-0.001718906075024313,0.00011077494997691062,0.0035075900171914753,-0.008741784527465324
2025-01-01T12:00:00.446667,0.44,2.6857036472771774,-0.0014391847213837416,-2.8226644649458367e-05,2.6857036472771774,-0.0014391847213837416,-2.8226644649458367e-05,6.0271642113293105,-0.0006263214459381912,-0.0033045207015467994,-0.00011077773665224555,0.004979113571872418,-0.008996743336164847
2025-01-01T12:00:00.453333,0.446666,2.7254088494882365,-0.001440480071382581,-3.249100294059189e-05,2.7254088494882365,-0.001440480071382581,-3.249100294059189e-05,6.026507665259282,-0.0009349156235252724,-0.0020995108441525375,0.0003676207173586299,0.004778347828967355,-0.007700823012614766
2025-01-01T12:00:00.460000,0.453333,2.765405467262611,-0.001640209829832542,-3.2149497302974496e-05,2.765405467262611,-0.001640209829832542,-3.2149497302974496e-05,6.024907203988859,-0.0011849002772462056,-0.002279445344374084,0.00238403010970778,0.005828624495722412,-0.007926685474943795
2025-01-01T12:00:00.466667,0.46,2.8059880273669044,-0.0015197717025232456,-2.943225146320817e-05,2.8059880273669044,-0.0015197717025232456,-2.943225146320817e-05,6.02651958480521,0.00047417033327702544,-0.003196231970898271,0.0019406915214661424,0.00600382471852301,-0.007913312148873253
2025-01-01T12:00:00.473333,0.466666,2.846214827753168,-0.001536900692506032,-2.7731382473895514e-05,2.846214827753168,-0.001536900692506032,-2.7731382473895514e-05,6.027165444439198,0.0017173214847793987,-0.003833491019415522,0.0010085901153944477,0.004865426413663609,-0.008702234245625107
2025-01-01T12:00:00.480000,0.473333,2.886640200701761,-0.0013507150543940066,-2.7019408140598256e-05,2.886640200701761,-0.0013507150543940066,-2.7019408140598256e-05,6.027717336854676,0.0009906668071274086,-0.004183942540683048,0.0005735550367074183,0.004716311292153552,-0.009476304446748518
2025-01-01T12:00:00.486667,0.48,2.927087176532162,-0.0012090497250780844,-2.930842618301482e-05,2.927087176532162,-0.0012090497250780844,-2.930842618301482e-05,6.028783644250162,-0.0012683926160707562,-0.0036160671264323157,-5.845559287864788e-05,0.0035631242215607983,-0.009872217579924847
2025-01-01T12:00:00.493333,0.486666,2.9672720829357164,-0.001798815099699597,-3.270275012806894e-05,2.9672720829357164,-0.001798815099699597,-3.270275012806894e-05,6.02886040933237,-0.006512574634985006,-0.002686751962856178,0.00016745682581698063,0.002582847226409779,-0.008912115469083215
2025-01-01T12:00:00.500000,0.493333,3.007265013972465,-0.0019193358911726356,-3.003622000293225e-05,3.007265013972465,-0.0019193358911726356,-3.003622000293225e-05,6.027069615263632,-0.005984093949120525,-0.0036090826378630163,0.0005942879258702405,0.0016812381752311367,-0.007584771560780634
2025-01-01T12:00:00.506667,0.5,3.0478658150218054,-0.0020411346281626608,-2.0272212113651437e-05,3.0478658150218054,-0.0020411346281626608,-2.0272212113651437e-05,6.028247312318337,-0.005244846135156919,-0.006764288890053748,-4.706714212110441e-05,0.0027227591634284565,-0.007394524398370628
2025-01-01T12:00:00.513333,0.506666,3.087910855626137,-0.0024058403616629325,-1.5683033514826167e-05,3.087910855626137,-0.0024058403616629325,-1.5683033514826167e-05,6.026871139970429,-0.008352718840465822,-0.008426095192552704,-0.0001499582316939474,0.0022435928765212054,-0.007567818343892085
2025-01-01T12:00:00.520000,0.513333,3.127374470658659,-0.0013177558505738539,-1.4923786188785642e-05,3.127374470658659,-0.0013177558505738539,-1.4923786188785642e-05,6.024590200305075,-0.004616612105305838,-0.00896342527094834,-0.002595799540328514,0.0030211455855964076,-0.00833181165174457
2025-01-01T12:00:00.526667,0.52,3.1680059678636754,-0.0019510292640392323,-1.316968446668767e-05,3.1680059678636754,-0.0019510292640392323,-1.316968446668767e-05,6.02583641289444,-0.006612637989701027,-0.00982106175165912,-0.001955250151715049,0.003387749663173789,-0.00780787482779477
2025-01-01T12:00:00.533333,0.526666,3.208722490076304,-0.002361801297793221,-1.2708040697788158e-05,3.208722490076304,-0.002361801297793221,-1.2708040697788158e-05,6.0294965642500955,-0.008949419408284254,-0.010307920771884303,-0.0020940723566602593,0.003141178457171545,-0.0071619447367199385
2025-01-01T12:00:00.540000,0.533333,3.249298768405315,-0.00277137516496915,-1.136802911067839e-05,3.249298768405315,-0.00277137516496915,-1.136802911067839e-05,6.031483355747993,-0.01090766991672265,-0.011086508075436435,-0.0015400863346646254,0.0035996974094878453,-0.007809151472023768
2025-01-01T12:00:00.546667,0.54,3.288831058738311,-0.0030626546851066916,-1.0571769040638386e-05,3.288831058738311,-0.0030626546851066916,-1.0571769040638386e-05,6.028349685342958,-0.012312644697782026,-0.011729953731772439,-0.0007475421165272778,0.003492519499857405,-0.006978442475365831
2025-01-01T12:00:00.553333,0.546666,3.328504026555821,-0.0031962510795437308,-1.9267207256899824e-05,3.328504026555821,-0.0031962510795437308,-1.9267207256899824e-05,6.025115431542298,-0.011851445156452024,-0.009447712827047832,-0.000497880239241244,0.002725705079748675,-0.007238114673074669
2025-01-01T12:00:00.560000,0.553333,3.3681139535628652,-0.003349637566855791,-2.0676636150349266e-05,3.3681139535628652,-0.003349637566855791,-2.0676636150349266e-05,6.0234973719940115,-0.01282870016829219,-0.009348867998811523,-0.0003439027596847666,0.0017839207116727707,-0.007674078953777919
2025-01-01T12:00:00.566667,0.56,3.4083162277878665,-0.003707710348578008,-2.7580598960284667e-05,3.4083162277878665,-0.003707710348578008,-2.7580598960284667e-05,6.022434391614074,-0.016157162308310748,-0.007537100119092493,0.0004590892100622135,0.0013095338887731955,-0.008179107305638755
2025-01-01T12:00:00.573333,0.566666,3.447766078451124,-0.0037828475527123943,-2.1494250107591858e-05,3.447766078451124,-0.0037828475527123943,-2.1494250107591858e-05,6.017111921986217,-0.016395022502886106,-0.00969950295882,0.00025939071155134386,0.0018471676889060262,-0.00836794166824495
2025-01-01T12:00:00.580000,0.573333,3.4876034156830413,-0.004134305872383167,-2.438903403872117e-05,3.4876034156830413,-0.004134305872383167,-2.438903403872117e-05,6.01424509023232,-0.015923046486537286,-0.009147965548379862,0.0014725702818982889,0.0008617610362962047,-0.008659442213540647
2025-01-01T12:00:00.586667,0.58,3.5281912169480187,-0.0042131995488029865,-2.0276504836708943e-05,3.5281912169480187,-0.0042131995488029865,-2.0276504836708943e-05,6.015085539832355,-0.01748141361507102,-0.01075739435835237,0.0023130496851542226,0.0010819009137925661,-0.00861850779651574
2025-01-01T12:00:00.593333,0.586666,3.567284254972168,-0.004259300283895862,-2.4277063094501003e-05,3.567284254972168,-0.004259300283895862,-2.4277063094501003e-05,6.01286009849757,-0.016934570152291422,-0.009902612105097498,0.0015686217280310721,0.0008186519989599184,-0.007782256604044857
2025-01-01T12:00:00.600000,0.593333,3.607343058769585,-0.0038678109539452515,-2.6857527429703824e-05,3.607343058769585,-0.0038678109539452515,-2.6857527429703824e-05,6.013229811025839,-0.015376461973354088,-0.009461394746191057,0.0006416303551324276,0.000754625016841981,-0.00824475901377797
2025-01-01T12:00:00.606667,0.6,3.6473730225379133,-0.003883819145974305,-3.42835667270084e-05,3.6473730225379133,-0.003883819145974305,-3.42835667270084e-05,6.012242510469647,-0.015622732834707427,-0.007496869595191696,0.00040954101716383917,0.0005111268476722941,-0.007488430699680748
2025-01-01T12:00:00.613333,0.606666,3.6874740437663793,-0.004055406266516766,-4.221327322691245e-05,3.6874740437663793,-0.004055406266516766,-4.221327322691245e-05,6.010640360973575,-0.015326376025518769,-0.005304300122740082,0.0008033677537171435,-0.0005450915289486602,-0.007215945397820445
2025-01-01T12:00:00.620000,0.613333,3.727435931964131,-0.003749992609504048,-4.389769909680239e-05,3.727435931964131,-0.003749992609504048,-4.389769909680239e-05,6.00862964283731,-0.012321430277156478,-0.004974809873542487,0.0010776435762109848,-0.0002085529931616925,-0.006260833912189234
2025-01-01T12:00:00.626667,0.62,3.7668676328599413,-0.004256790495244626,-4.868158246441449e-05,3.7668676328599413,-0.004256790495244626,-4.868158246441449e-05,6.003704158546241,-0.014394551283569835,-0.003665676904963376,0.001898254725084314,0.00028757291859449197,-0.006464837948857216
2025-01-01T12:00:00.633333,0.626666,3.806925236937897,-0.004429600628946408,-6.56404505036043e-05,3.806925236937897,-0.004429600628946408,-6.56404505036043e-05,6.0058777587981025,-0.015312215219724205,0.0014742927114434923,0.0019161923034856088,3.51622251781869e-05,-0.005762745943218572
2025-01-01T12:00:00.640000,0.633333,3.8471964255311017,-0.004771642596433225,-7.204023045856488e-05,3.8471964255311017,-0.004771642596433225,-7.204023045856488e-05,6.008523874363037,-0.016184358330712793,0.003519273364097569,0.002953706157568181,-0.000710669677665976,-0.006506764171152923
2025-01-01T12:00:00.646667,0.64,3.887382812744855,-0.004383820758208393,-7.337158691309487e-05,3.887382812744855,-0.004383820758208393,-7.337158691309487e-05,6.00920840140581,-0.015911571303941382,0.0040613579486322325,0.00361694030155979,-0.001547410439372232,-0.006574079038086822
2025-01-01T12:00:00.653333,0.646666,3.9273923281769414,-0.004516495437010954,-7.630880357870979e-05,3.9273923281769414,-0.004516495437010954,-7.630880357870979e-05,6.011264546717049,-0.014576483336715145,0.005125060857163935,0.0031149892748345565,-9.421924572272644e-05,-0.0063223758133714725
2025-01-01T12:00:00.660000,0.653333,3.967322312414685,-0.004330128552093757,-7.572771184295452e-05,3.967322312414685,-0.004330128552093757,-7.572771184295452e-05,6.013589429601619,-0.013663340819000946,0.0051330727639526345,0.001528773449295695,0.00031024678232283165,-0.007067451371514544
2025-01-01T12:00:00.666667,0.66,4.007687914074002,-0.003904883812537039,-6.75980708235404e-05,4.007687914074002,-0.003904883812537039,-6.75980708235404e-05,6.0155514027770005,-0.010718349823994085,0.002793945192887776,0.0011770335911061025,-0.0006153618224100654,-0.007221513650598421
2025-01-01T12:00:00.673333,0.666666,4.047234916749218,-0.004324094763478522,-6.68766733986529e-05,4.047234916749218,-0.004324094763478522,-6.68766733986529e-05,6.013376942645954,-0.013431669992922253,0.0026730276708010065,0.0018626548321871716,-0.0018117438350961912,-0.00680464628817834
2025-01-01T12:00:00.680000,0.673333,4.087849774894838,-0.0037766964404539185,-6.144538919976857e-05,4.087849774894838,-0.0037766964404539185,-6.144538919976857e-05,6.014272044337747,-0.010288419089618162,0.0010822949862194708,0.001288331427232059,-0.0003450514833307494,-0.006805132252571955
2025-01-01T12:00:00.686667,0.68,4.128037067533844,-0.004413258818470843,-6.001698819663416e-05,4.128037067533844,-0.004413258818470843,-6.001698819663416e-05,6.014170211743864,-0.011986707464631529,0.0006789238419861458,0.0009885062890475638,-0.000835606652725307,-0.007872056674842476
2025-01-01T12:00:00.693333,0.686666,4.168304822718646,-0.004527310339780978,-6.029355989743761e-05,4.168304822718646,-0.004527310339780978,-6.029355989743761e-05,6.012221985455296,-0.011101914921850562,0.0007903265824560675,3.913154072954228e-05,-0.000702624608105662,-0.007132673998172745
2025-01-01T12:00:00.700000,0.693333,4.208712882259991,-0.004833313301168703,-5.2133511307017075e-05,4.208712882259991,-0.004833313301168703,-5.2133511307017075e-05,6.014285119549335,-0.011872097224499865,-0.0017194348687251855,-0.0003773362177987849,-0.0003349932277396661,-0.007212327789810402
2025-01-01T12:00:00.706667,0.7,4.24918293642096,-0.005231208049613559,-5.695294959382816e-05,4.24918293642096,-0.005231208049613559,-5.695294959382816e-05,6.017793229910453,-0.014105760272705199,-0.0002829426277914382,-0.0005677016728351525,-0.0007069456082748893,-0.006763201093173521
2025-01-01T12:00:00.713333,0.706666,4.289714867712832,-0.005063343012778303,-5.6627562278739274e-05,4.289714867712832,-0.005063343012778303,-5.6627562278739274e-05,6.018948679266776,-0.01445648597454846,-0.000394748014149492,-0.00094473578185994,-0.0012937781305275564,-0.006501895048185435
2025-01-01T12:00:00.720000,0.713333,4.329440449418965,-0.004562809301846105,-5.8687979469020216e-05,4.329440449418965,-0.004562809301846105,-5.8687979469020216e-05,6.018993150866697,-0.0118469887139577,0.00023033586203828767,0.00031157868900910657,-0.0022852947064482265,-0.006781833741758447
2025-01-01T12:00:00.726667,0.72,4.3700479046814005,-0.004178315686690745,-5.8276212106117123e-05,4.3700479046814005,-0.004178315686690745,-5.8276212106117123e-05,6.021656547565006,-0.009309900546082463,0.00011163120023430043,-0.0004374629163428345,-0.0027596454034175544,-0.005219057655313719
2025-01-01T12:00:00.733333,0.726666,4.410522492530318,-0.004733468278659427,-5.7488069016502565e-05,4.410522492530318,-0.004733468278659427,-5.7488069016502565e-05,6.022115022580256,-0.011133154413441461,-0.00012848727882093622,-0.001848673386295907,-0.0026734454961858667,-0.005498328847263867
2025-01-01T12:00:00.740000,0.733333,4.450796549315555,-0.004991828985198264,-4.765712480326718e-05,4.450796549315555,-0.004991828985198264,-4.765712480326718e-05,6.022269544004062,-0.010497452857139397,-0.003193747254638766,-0.002515866320238036,-0.0014810700525109688,-0.006111576178942535
2025-01-01T12:00:00.746667,0.74,4.4913365533185905,-0.005012083381559418,-4.1346664886097676e-05,4.4913365533185905,-0.005012083381559418,-4.1346664886097676e-05,6.024177085172042,-0.012115347039823164,-0.005278574533176566,-0.003434503361056329,-0.0024385542520253267,-0.006238566227443787
2025-01-01T12:00:00.753333,0.746666,4.531720464961717,-0.0050111720857122675,-4.323657020115617e-05,4.531720464961717,-0.0050111720857122675,-4.323657020115617e-05,6.027966821371851,-0.011835236544874927,-0.004889487925620829,-0.003172614891242098,-0.0025273528457350203,-0.006796250376326807
2025-01-01T12:00:00.760000,0.753333,4.572411240019009,-0.005171064189601821,-4.2041305951044575e-05,4.572411240019009,-0.005171064189601821,-4.2041305951044575e-05,6.030387528935962,-0.012624557941643676,-0.005445328111836078,-0.0018148152347410296,-0.002503032593971888,-0.006313498662171124
2025-01-01T12:00:00.766667,0.76,4.613354943383105,-0.0056972995823107095,-4.292032785560301e-05,4.613354943383105,-0.0056972995823107095,-4.292032785560301e-05,6.031552676105232,-0.014274807798855184,-0.005375710658888169,-0.0032663097713347966,-0.0022926507847738087,-0.008416467859291288
2025-01-01T12:00:00.773333,0.766666,4.653889442999068,-0.006027577188104283,-4.1489208150896105e-05,4.653889442999068,-0.006027577188104283,-4.1489208150896105e-05,6.030671247827938,-0.013428844260775442,-0.006025043842251522,-0.00400129028835261,-0.0028295622193672543,-0.008807843038508345
2025-01-01T12:00:00.780000,0.773333,4.694586491585335,-0.0062887185085303545,-4.460692287850905e-05,4.694586491585335,-0.0062887185085303545,-4.460692287850905e-05,6.031068622915088,-0.012429008258852105,-0.005282779276685568,-0.0036040150710503482,-0.00365039199735806,-0.008467958761014582
2025-01-01T12:00:00.786667,0.78,4.734998901759222,-0.00568465374793594,-5.035257683079707e-05,4.734998901759222,-0.00568465374793594,-5.035257683079707e-05,6.033855908856844,-0.00974457670959647,-0.0036941383069037997,-0.0042535916603778645,-0.003901399997666033,-0.007390307164571119
2025-01-01T12:00:00.793333,0.786666,4.77523081069021,-0.005863914173891601,-4.881242571223138e-05,4.77523081069021,-0.005863914173891601,-4.881242571223138e-05,6.033830107656722,-0.00891313707292149,-0.004315025309740798,-0.004550432972001861,-0.002844814098192039,-0.00744858926493519
2025-01-01T12:00:00.800000,0.793333,4.8149670310456205,-0.005853470282999793,-4.818228753262076e-05,4.8149670310456205,-0.005853470282999793,-4.818228753262076e-05,6.032077848923924,-0.00662611546826651,-0.004677270638192558,-0.0033755181164489834,-0.003634036350751657,-0.007726373451306223
2025-01-01T12:00:00.806667,0.8,4.855149163272912,-0.006416482758269474,-4.317889846952922e-05,4.855149163272912,-0.006416482758269474,-4.317889846952922e-05,6.031599668348999,-0.007137605990985805,-0.0064158293242995495,-0.0033620360910533442,-0.003716325815487309,-0.008067155234046552
2025-01-01T12:00:00.813333,0.806666,4.895176222248861,-0.006898120294898439,-4.4753719174490905e-05,4.895176222248861,-0.006898120294898439,-4.4753719174490905e-05,6.030953442216697,-0.007049916870126845,-0.006172469289526755,-0.0022022459662953686,-0.004382669784791737,-0.007210040685104779
2025-01-01T12:00:00.820000,0.813333,4.935426153514798,-0.0065294775229238905,-4.553920245515368e-05,4.935426153514798,-0.0065294775229238905,-4.553920245515368e-05,6.0335067567889915,-0.004700962939696346,-0.00616370043288562,-0.001472919846419618,-0.004513993973717767,-0.007614387918544185
2025-01-01T12:00:00.826667,0.82,4.975813979653625,-0.006825073739303779,-5.0535496911195435e-05,4.975813979653625,-0.006825073739303779,-5.0535496911195435e-05,6.032892833246091,-0.004750333893922573,-0.004844430470912591,-0.0011992877989817075,-0.004477913930501121,-0.007858368150774009
2025-01-01T12:00:00.833333,0.826666,5.016206241090057,-0.0073615908500453565,-4.836959881073946e-05,5.016206241090057,-0.0073615908500453565,-4.836959881073946e-05,6.032568063768512,-0.005897271504864365,-0.005706525804577991,-0.0009781523214154042,-0.003910263892429544,-0.007653108896594318
2025-01-01T12:00:00.840000,0.833333,5.056708068592181,-0.007890895982291816,-5.244381872475251e-05,5.056708068592181,-0.007890895982291816,-5.244381872475251e-05,6.032737207548915,-0.009198098744041223,-0.004657355192580156,-0.0009332067081069262,-0.004467853763550522,-0.006942292069459288
2025-01-01T12:00:00.846667,0.84,5.097283323095506,-0.008130999137271243,-6.169438190045642e-05,5.097283323095506,-0.008130999137271243,-6.169438190045642e-05,6.0335660541509455,-0.00923425327268951,-0.0019545921806562905,-0.0013327778868870155,-0.004361915272464767,-0.006699148043800562
2025-01-01T12:00:00.853333,0.846666,5.136793754173883,-0.007301806160838155,-5.946286102196742e-05,5.136793754173883,-0.007301806160838155,-5.946286102196742e-05,6.029235770095324,-0.006225074133859769,-0.0027241002614051745,-0.002114469195708235,-0.005903917689247695,-0.006899803755670231
2025-01-01T12:00:00.860000,0.853333,5.1763779818053095,-0.007789686354224636,-5.901071184921925e-05,5.1763779818053095,-0.007789686354224636,-5.901071184921925e-05,6.0278248262892875,-0.004486991216194628,-0.0029717206680686063,-0.0011311259714279487,-0.005497763584648929,-0.006941811856008062
2025-01-01T12:00:00.866667,0.86,5.217539967080162,-0.006958670011664099,-6.508586018963863e-05,5.217539967080162,-0.006958670011664099,-6.508586018963863e-05,6.029165611285177,-0.0011933088841275465,-0.0011911208125287985,-0.001955174034920848,-0.005224109649442088,-0.00727097364322038
2025-01-01T12:00:00.873333,0.866666,5.2592203646396145,-0.0077139094671003685,-6.625661634113354e-05,5.2592203646396145,-0.0077139094671003685,-6.625661634113354e-05,6.033514774440974,-0.006618462031615417,-0.0008730204494436781,-0.0024783064802798016,-0.0034530868697464356,-0.007387273503065561
2025-01-01T12:00:00.880000,0.873333,5.299251104218343,-0.007388959289307983,-6.990662546562655e-05,5.299251104218343,-0.007388959289307983,-6.990662546562655e-05,6.033085985679107,-0.005799578819514842,0.00023105718464462842,-0.001559584041273876,-0.0030421596932161954,-0.008229761292265714
2025-01-01T12:00:00.886667,0.88,5.339158222339118,-0.006587960539499997,-7.113441218847918e-05,5.339158222339118,-0.006587960539499997,-7.113441218847918e-05,6.0317102406089065,-0.004624833796420056,0.000623578944558117,-0.0027459245089551665,-0.003892930451808496,-0.007668910306280807
2025-01-01T12:00:00.893333,0.886666,5.379220393454875,-0.006514325428767543,-6.981849638370972e-05,5.379220393454875,-0.006514325428767543,-6.981849638370972e-05,6.0303350742546025,-0.005107552452539731,0.00023781002208646054,-0.0023740492281483228,-0.0038946622286779586,-0.0083530926743558
2025-01-01T12:00:00.900000,0.893333,5.419888464196779,-0.006423764541991549,-6.941243070933581e-05,5.419888464196779,-0.006423764541991549,-6.941243070933581e-05,6.0296422988632985,-0.004210939004980583,0.0001203228063375876,-0.0018575488923846528,-0.0034621352208872302,-0.007035202015578612
2025-01-01T12:00:00.906667,0.9,5.459894869130897,-0.006766875314384571,-7.988727589956287e-05,5.459894869130897,-0.006766875314384571,-7.988727589956287e-05,6.02951110070885,-0.00428009358003402,0.003389534556082141,-0.0006514420300249846,-0.0042970983317371925,-0.006831103565887453
2025-01-01T12:00:00.913333,0.906666,5.4992900102099815,-0.006065578334718963,-8.638029284271229e-05,5.4992900102099815,-0.006065578334718963,-8.638029284271229e-05,6.028131773706964,-0.0039626708340422395,0.005546235669074598,-0.001503210117640652,-0.005296871011311044,-0.0062383446729037395
2025-01-01T12:00:00.920000,0.913333,5.539562124328708,-0.0063001292940567475,-8.486985766101591e-05,5.539562124328708,-0.0063001292940567475,-8.486985766101591e-05,6.028272874939254,-0.004517676572173678,0.0052915917354137785,-0.0027106988288880807,-0.006167796663627989,-0.005797803013249947
2025-01-01T12:00:00.926667,0.92,5.580211099098382,-0.0059818753376852055,-9.256986490114315e-05,5.580211099098382,-0.0059818753376852055,-9.256986490114315e-05,6.028415017892533,-0.003180611149401362,0.00789835876428478,-0.0023398636015556917,-0.004815813150827797,-0.004559949761883342
2025-01-01T12:00:00.933333,0.926666,5.6204493514798095,-0.0065160177231812786,-9.297634474153436e-05,5.6204493514798095,-0.0065160177231812786,-9.297634474153436e-05,6.02673816171509,-0.0035109546736316138,0.008333139891147012,-0.0023201731257072034,-0.004234209139058809,-0.005048892128951099
2025-01-01T12:00:00.940000,0.933333,5.660766527048237,-0.007295878661433661,-0.00010151644984944058,5.660766527048237,-0.007295878661433661,-0.00010151644984944058,6.026752098681928,-0.005147750706519192,0.011320427008952593,-0.0031967903605600867,-0.00407776158791906,-0.004194077210854186
2025-01-01T12:00:00.946667,0.94,5.700924566101927,-0.007881727181324221,-0.00010138781913433223,5.700924566101927,-0.007881727181324221,-0.00010138781913433223,6.025015968742964,-0.007869390206271984,0.011723205926333684,-0.0040241460834877785,-0.005665623330801228,-0.0033302938075228106
2025-01-01T12:00:00.953333,0.946666,5.741679227011156,-0.008501098301138814,-0.00010591385412258925,5.741679227011156,-0.008501098301138814,-0.00010591385412258925,6.026149344013238,-0.010108695728826054,0.013592552410172341,-0.0033536749978622105,-0.005019131128720211,-0.00466642389883587
2025-01-01T12:00:00.960000,0.953333,5.782896788518465,-0.009145009845827227,-0.0001014497768381253,5.782896788518465,-0.009145009845827227,-0.0001014497768381253,6.029120759845447,-0.01114635715213902,0.012732453429547883,-0.0028073590235284662,-0.004500500721729139,-0.0043048539263246255
2025-01-01T12:00:00.966667,0.96,5.824219484854981,-0.00909618737800625,-0.00010280251720781069,5.824219484854981,-0.00909618737800625,-0.00010280251720781069,6.031210737540732,-0.011463303376105629,0.013652529728725434,-0.0018861598781709787,-0.0033889799974446966,-0.0039382439050204
2025-01-01T12:00:00.973333,0.966666,5.865797664826649,-0.00836782079378587,-9.829435109254446e-05,5.865797664826649,-0.00836782079378587,-9.829435109254446e-05,6.033770122887011,-0.009600840739739687,0.01278158239813114,-0.0018019794590711236,-0.0028450966824049573,-0.004076822955374038
2025-01-01T12:00:00.980000,0.973333,5.906105349786972,-0.0068833042984268265,-9.724464877211194e-05,5.906105349786972,-0.0068833042984268265,-9.724464877211194e-05,6.034457410657677,-0.00640993669448894,0.012956698723531836,-0.001491881458343336,-0.003139555481307621,-0.0030114530191531763
2025-01-01T12:00:00.986667,0.98,5.945640013311197,-0.005737203444958872,-9.93361380586633e-05,5.945640013311197,-0.005737203444958872,-9.93361380586633e-05,6.029547593833985,-0.005118788969089021,0.014119443482532894,-0.0009497819543100583,-0.00323851490029492,-0.001975663228143798
2025-01-01T12:00:00.993333,0.986666,5.985632914001785,-0.005923448953674648,-8.990471411812767e-05,5.985632914001785,-0.005923448953674648,-8.990471411812767e-05,6.028736489773391,-0.004402093301025704,0.01173482180382537,-0.00024606735878629493,-0.00359161693408927,-0.0013624820815749672
2025-01-01T12:00:01,0.993333,6.02569029142677,-0.004987408969055738,-9.40670372555065e-05,6.02569029142677,-0.004987408969055738,-9.40670372555065e-05,6.029409006946186,-0.003992944975314997,0.013494874844527051,-0.00015152781103955348,-0.003974181832904655,-0.0005363026250404523
2025-01-01T12:00:01.006667,1.0,6.066738115752636,-0.005072092943344085,-8.920449826494746e-05,6.066738115752636,-0.005072092943344085,-8.920449826494746e-05,6.031928422650466,-0.004806757180764762,0.012509632210670045,0.0002500067562256625,-0.0035844953670838287,-0.0007699492514445794
2025-01-01T12:00:01.013333,1.006666,6.107458194905274,-0.004649084471493156,-8.542907656943398e-05,6.107458194905274,-0.004649084471493156,-8.542907656943398e-05,6.02925477998138,-0.0029340355470448163,0.011824703660628747,0.0006666030209152574,-0.002886538424966112,-0.00041418459563180576
2025-01-01T12:00:01.020000,1.013333,6.146885505873138,-0.0040046098850130074,-8.052788428353885e-05,6.146885505873138,-0.0040046098850130074,-8.052788428353885e-05,6.029122840582729,-0.0018961675773034644,0.010764204383093449,0.0003306594762952919,-0.003953756464686542,-0.00045962655933617924
2025-01-01T12:00:01.026667,1.02,6.187957500125596,-0.0048915362972781345,-7.033319309134614e-05,6.187957500125596,-0.0048915362972781345,-7.033319309134614e-05,6.032457777881406,-0.0046997171117005585,0.00800973042129555,-0.0002956454826601451,-0.004400235645813044,-0.0006686908904964817
2025-01-01T12:00:01.033333,1.026666,6.227290677456026,-0.004261760750935949,-7.059138924254008e-05,6.227290677456026,-0.004261760750935949,-7.059138924254008e-05,6.032937525349246,-0.004278974848627432,0.008406989670515348,-0.00038874517883380477,-0.0028251780807062588,-0.00195603473889161
2025-01-01T12:00:01.040000,1.033333,6.266733262321041,-0.005039464402966624,-6.568856772869904e-05,6.266733262321041,-0.005039464402966624,-6.568856772869904e-05,6.0310801065667095,-0.0015317757172647298,0.007210858347007345,-0.0014801307586278512,-0.002128478002420664,-0.0025764317383547564
2025-01-01T12:00:01.046667,1.04,6.307001638421256,-0.004918384951531524,-6.580495275053203e-05,6.307001638421256,-0.004918384951531524,-6.580495275053203e-05,6.0308376422352605,-0.0008182117173730545,0.007532675115947513,-0.0009390234588910751,-0.002398980280513552,-0.0030425990726481444
2025-01-01T12:00:01.053333,1.046666,6.34766336554761,-0.004248657667059447,-7.112575754833162e-05,6.34766336554761,-0.004248657667059447,-7.112575754833162e-05,6.032314119645675,0.0012914944688514085,0.00949074258357785,-0.0009455041804975473,-0.0017996120416605699,-0.0038251178522168416
2025-01-01T12:00:01.060000,1.053333,6.387759216524712,-0.0036167900537803577,-6.93115544381419e-05,6.387759216524712,-0.0036167900537803577,-6.93115544381419e-05,6.032869082385888,0.0008118999658018645,0.009301304384426657,-0.002718240612651357,-0.002561504112447821,-0.004181540139165829
2025-01-01T12:00:01.066667,1.06,6.426898582232882,-0.0035325392225248114,-6.456996939938818e-05,6.426898582232882,-0.0035325392225248114,-6.456996939938818e-05,6.031888153721547,0.0019954863354128354,0.008191477818817709,-0.003124536536229794,-0.003579137686420708,-0.0037233787257466844
2025-01-01T12:00:01.073333,1.066666,6.46682282271698,-0.00458510995226992,-5.171041150916514e-05,6.46682282271698,-0.00458510995226992,-5.171041150916514e-05,6.031375989942447,0.001055552278629896,0.0045050550798916835,-0.0028105041525452457,-0.0021940946411600493,-0.0033720561406895833
2025-01-01T12:00:01.080000,1.073333,6.507364099607379,-0.0050611379400295415,-5.2629563623584274e-05,6.507364099607379,-0.0050611379400295415,-5.2629563623584274e-05,6.030622205593054,-0.0008105082994972836,0.004970449649296877,-0.003168528201401344,-0.0019512984218410523,-0.004482891013525503
2025-01-01T12:00:01.086667,1.08,6.548230035517094,-0.005703190195158227,-4.7321321008081854e-05,6.548230035517094,-0.005703190195158227,-4.7321321008081854e-05,6.031996348951997,0.0003138036529527475,0.0035115396413209965,-0.0036466604856659757,-0.0025444669635197315,-0.004730245257125176
2025-01-01T12:00:01.093333,1.086666,6.588554896386264,-0.00514459761519294,-5.17893567428202e-05,6.588554896386264,-0.00514459761519294,-5.17893567428202e-05,6.030111378782335,-0.0004228178698063123,0.00504508126024738,-0.0038063039676390353,-0.002671794110266301,-0.004764240283767318
2025-01-01T12:00:01.100000,1.093333,6.629329892849415,-0.005253715032819499,-4.646302609537524e-05,6.629329892849415,-0.005253715032819499,-4.646302609537524e-05,6.0302458581169995,-0.0014706597220921185,0.0035838550495805995,-0.004620030109415474,-0.0016210191668712959,-0.005271476361809135
2025-01-01T12:00:01.106667,1.1,6.668982546641605,-0.004022485021584815,-4.8153115009534676e-05,6.668982546641605,-0.004022485021584815,-4.8153115009534676e-05,6.029534897842739,4.051237596348119e-06,0.004254234558468184,-0.0046066042608603475,-0.0008854768541737279,-0.003900475705395312
2025-01-01T12:00:01.113333,1.106666,6.710104300664026,-0.006146117215405396,-5.5891895909662617e-05,6.710104300664026,-0.006146117215405396,-5.5891895909662617e-05,6.030677886826267,-0.003343433372576335,0.006836802148683637,-0.0037409233624945415,0.00010127498573497817,-0.004134288641340689
2025-01-01T12:00:01.120000,1.113333,6.750767227746351,-0.0066833341728979615,-5.3823012832082866e-05,6.750767227746351,-0.0066833341728979615,-5.3823012832082866e-05,6.032577216039701,-0.002648488380319889,0.0064634629703960635,-0.0029617386627749376,0.0012895557826100301,-0.004120673390858087
2025-01-01T12:00:01.126667,1.12,6.790757007068603,-0.006823287976997625,-5.1243017057517735e-05,6.790757007068603,-0.006823287976997625,-5.1243017057517735e-05,6.032442799626988,-0.003230313042725538,0.005916504282519492,-0.003453949454344407,0.0002228149865950435,-0.0047917956504708314
2025-01-01T12:00:01.133333,1.126666,6.83015112352065,-0.007174810307340802,-4.723367040257174e-05,6.83015112352065,-0.007174810307340802,-4.723367040257174e-05,6.033120732433135,-0.002135156593255867,0.004901645925293043,-0.0029871416706286347,-0.000367121289986283,-0.0037625561296477095
2025-01-01T12:00:01.140000,1.133333,6.870448362696273,-0.006864196886233106,-4.2992219253957706e-05,6.870448362696273,-0.006864196886233106,-4.2992219253957706e-05,6.032146277033201,0.0003842609787596627,0.0037744680964991663,-0.0028875825019825108,-0.0005488821672319233,-0.003631308942833922
2025-01-01T12:00:01.146667,1.14,6.910662463714721,-0.007043017969197473,-4.766424291068062e-05,6.910662463714721,-0.007043017969197473,-4.766424291068062e-05,6.033261683397725,0.0011973773128808195,0.005382692533936609,-0.0019299307233686669,-0.0014444870406107313,-0.002879399500277824
2025-01-01T12:00:01.153333,1.146666,6.950489515992857,-0.008039366820409828,-4.103385993521507e-05,6.950489515992857,-0.008039366820409828,-4.103385993521507e-05,6.0343940570280346,-0.0012276978649657746,0.0035280718243338688,-0.001983436405915029,0.0003447540326853016,-0.0025816291707543293
2025-01-01T12:00:01.160000,1.153333,6.990491941680388,-0.007235749752377776,-3.00635281245876e-05,6.990491941680388,-0.007235749752377776,-3.00635281245876e-05,6.03347670376041,0.0004918636445215304,0.00024725266252327577,-0.0018916328215063949,0.0012466433983320258,-0.002814803487492412
2025-01-01T12:00:01.166667,1.16,7.031458699047717,-0.007026407731770975,-2.982095606622229e-05,7.031458699047717,-0.007026407731770975,-2.982095606622229e-05,6.033239612027405,-0.0008518338787716886,0.0001815503094462137,-0.001668451620758571,0.001322685425610537,-0.002583117977686289
2025-01-01T12:00:01.173333,1.166666,7.071998878435905,-0.0077007877028627035,-2.5950353193438255e-05,7.071998878435905,-0.0077007877028627035,-2.5950353193438255e-05,6.033542746344907,-0.00028652424580415765,-0.0010195573267498806,-0.001716669098156931,0.0011032974094979942,-0.002782042278095531
2025-01-01T12:00:01.180000,1.173333,7.111213999806198,-0.006954103567056777,-2.6439153290577093e-05,7.111213999806198,-0.006954103567056777,-2.6439153290577093e-05,6.033067745267711,0.0002077356917170284,-0.0009074488777488916,-0.0013973564711262654,0.0006933541193601123,-0.0020582309769632268
2025-01-01T12:00:01.186667,1.18,7.151133953211936,-0.0065543732171369305,-2.7241762300428688e-05,7.151133953211936,-0.0065543732171369305,-2.7241762300428688e-05,6.031966910288773,-0.002245110629142819,-0.0006933344421573707,-0.0012948467157634092,0.0009583139030473475,-0.0027146435399720836
2025-01-01T12:00:01.193333,1.186666,7.1914061220116485,-0.006848567320738182,-2.400051423502286e-05,7.1914061220116485,-0.006848567320738182,-2.400051423502286e-05,6.029215057674414,-0.002012623635923617,-0.0017326328473476883,-0.0005781421236652484,0.002398272209664931,-0.003289532901439074
2025-01-01T12:00:01.200000,1.193333,7.231515245166241,-0.006347259995564981,-2.8978453215716603e-05,7.231515245166241,-0.006347259995564981,-2.8978453215716603e-05,6.0277231642366775,0.0005828272524154775,-0.0002485012471351774,-0.00022532705191879998,0.0020243173538543324,-0.0025853194552625247
2025-01-01T12:00:01.206667,1.2,7.270697007174777,-0.006970342498013069,-2.736262079875692e-05,7.270697007174777,-0.006970342498013069,-2.736262079875692e-05,6.0257036067806045,-1.0344322495271611e-05,-0.0007623640679108459,0.00014108615541497116,0.00262614386853377,-0.0028659855069723683
2025-01-01T12:00:01.213333,1.206666,7.310460478012376,-0.005692334566212629,-2.7766227135768247e-05,7.310460478012376,-0.005692334566212629,-2.7766227135768247e-05,6.024160170019556,0.002037330708242812,-0.0006659552362240084,0.0007834556259318504,0.0018800613127032406,-0.002764410055781319
2025-01-01T12:00:01.220000,1.213333,7.351617403001652,-0.005298711531881995,-2.6247540840933428e-05,7.351617403001652,-0.005298711531881995,-2.6247540840933428e-05,6.026407623475816,0.004856504761099001,-0.0011669975123701829,-0.0003457919192682013,0.001200957477605069,-0.003508492134272956
2025-01-01T12:00:01.226667,1.22,7.391573119004183,-0.004568413924159749,-2.52872396014225e-05,7.391573119004183,-0.004568413924159749,-2.52872396014225e-05,6.027034507616075,0.0066882333783527025,-0.0015127870658856759,-0.0009431907140609042,0.0011853909441059685,-0.0032672719559734276
2025-01-01T12:00:01.233333,1.226666,7.4319925439622745,-0.004717815747533413,-2.2808604383076513e-05,7.4319925439622745,-0.004717815747533413,-2.2808604383076513e-05,6.024962676836827,0.0049463814204148485,-0.0023475035410380064,0.00021900777867145393,0.0009423739932170605,-0.002814274069570466
2025-01-01T12:00:01.240000,1.233333,7.472356419326289,-0.005773924578793474,-2.516631381519247e-05,7.472356419326289,-0.005773924578793474,-2.516631381519247e-05,6.024967293375143,0.0017234274010539921,-0.0017068673990937682,0.0011494181436066953,0.0013564854903838075,-0.002330754596233664
2025-01-01T12:00:01.246667,1.24,7.514021811335612,-0.006337862519671958,-3.119381589631641e-05,7.514021811335612,-0.006337862519671958,-3.119381589631641e-05,6.027809261270085,0.001606738590904039,0.00010390260544625517,-0.00037593250290690605,0.0012543435947529602,-0.0025261739473938505
2025-01-01T12:00:01.253333,1.246666,7.554803710473923,-0.005581618281477415,-2.6233728858209834e-05,7.554803710473923,-0.005581618281477415,-2.6233728858209834e-05,6.028363134038286,0.0007221268336994433,-0.0014402550621693802,-0.0011553096578760247,0.0016546043839400504,-0.003295925723555193
2025-01-01T12:00:01.260000,1.253333,7.593780964409488,-0.003975359323936895,-2.509354363389227e-05,7.593780964409488,-0.003975359323936895,-2.509354363389227e-05,6.0286646376179345,0.006796085131921022,-0.0018524330986549287,-0.0007812171824284064,0.0023920129056587136,-0.0024910116810623606
2025-01-01T12:00:01.266667,1.26,7.632857292522295,-0.003912618535096739,-2.9246721013983446e-05,7.632857292522295,-0.003912618535096739,-2.9246721013983446e-05,6.024491416904947,0.007200056774768631,-0.000630044124628474,-0.0020452722800898826,0.0021814244616682466,-0.002336738094896429
2025-01-01T12:00:01.273333,1.266666,7.674008489881452,-0.0049430450253343874,-3.4812240688223114e-05,7.674008489881452,-0.0049430450253343874,-3.4812240688223114e-05,6.025367962283557,0.005053867423212781,0.001079938084693737,-0.0022793254277586605,0.0023114105252011186,-0.0012012764771451856
2025-01-01T12:00:01.280000,1.273333,7.7130251657202615,-0.005060773678076207,-3.970500075181067e-05,7.7130251657202615,-0.005060773678076207,-3.970500075181067e-05,6.024460021709736,0.004702028664727406,0.0026512612774802144,-0.0014001759245712009,0.001696634685421028,-0.0015604698462730049
2025-01-01T12:00:01.286667,1.28,7.752123295210387,-0.00501510625102589,-3.6982258569268176e-05,7.752123295210387,-0.00501510625102589,-3.6982258569268176e-05,6.022574856015883,0.005856206975663544,0.0019092088603632927,-0.0019874222886078208,0.002756244449862333,-0.002093835845992764
2025-01-01T12:00:01.293333,1.286666,7.791571697439442,-0.004597714522007744,-3.404707607316039e-05,7.791571697439442,-0.004597714522007744,-3.404707607316039e-05,6.020384325992703,0.006547904307228614,0.0010710477439566182,-0.002323485089202215,0.002890137906701895,-0.0016498090093888251
2025-01-01T12:00:01.300000,1.293333,7.831007069824348,-0.004996797583858646,-2.7186141388154172e-05,7.831007069824348,-0.004996797583858646,-2.7186141388154172e-05,6.019260927414176,0.0058289022158276,-0.0010269171817648727,-0.001807430372978036,0.002690143262398692,-0.0004666012892675653
2025-01-01T12:00:01.306667,1.3,7.870078799877409,-0.005552138975081076,-3.071013304428074e-05,7.870078799877409,-0.005552138975081076,-3.071013304428074e-05,6.019246096085399,0.003823624695508708,3.167059328616472e-05,-0.0019176591919345398,0.003931680944237126,-0.0005570628474322881
2025-01-01T12:00:01.313333,1.306666,7.911082086247744,-0.0068450087977480435,-3.118969103268837e-05,7.911082086247744,-0.0068450087977480435,-3.118969103268837e-05,6.0204878489617215,0.003790666135543211,0.0001811228404329105,-0.0022918548615242784,0.004874477502450514,0.0011113046913409086
2025-01-01T12:00:01.320000,1.313333,7.952179132110862,-0.00688335905592583,-3.713341756126838e-05,7.952179132110862,-0.00688335905592583,-3.713341756126838e-05,6.024194078968885,0.0035643051126257115,0.0020435626544388426,-0.0018978203415445094,0.004919961811755691,0.0012738939277077144
2025-01-01T12:00:01.326667,1.32,7.991250348410704,-0.006514912612500926,-3.904739192952593e-05,7.991250348410704,-0.006514912612500926,-3.904739192952593e-05,6.022757706956155,0.0029088218131966548,0.002723943982659684,-0.0015577063287928183,0.005109932319040222,0.000871265224977158
2025-01-01T12:00:01.333333,1.326666,8.03124170012304,-0.006654647759559094,-3.809045474138712e-05,8.03124170012304,-0.006654647759559094,-3.809045474138712e-05,6.021847982919346,0.0023298642387859316,0.0025354697659577085,-0.0015840318901507722,0.004632171805818874,0.0006407704887587684
2025-01-01T12:00:01.340000,1.333333,8.070723082307795,-0.007557514829602286,-3.071480336610952e-05,8.070723082307795,-0.007557514829602286,-3.071480336610952e-05,6.023872672857764,0.0027577657823211746,0.0003349231871998468,-0.0008841907693595275,0.004900243609408772,0.001149143910530892
2025-01-01T12:00:01.346667,1.34,8.11141719177669,-0.006304286312477776,-4.171557640144736e-05,8.11141719177669,-0.006304286312477776,-4.171557640144736e-05,6.026864493205559,0.006294014004453487,0.0037839691451074207,-0.0012769162902430686,0.004003902572806695,0.0017765196319601273
2025-01-01T12:00:01.353333,1.346666,8.15117135512431,-0.007100953235976891,-3.9949155763696476e-05,8.15117135512431,-0.007100953235976891,-3.9949155763696476e-05,6.02745278504947,0.003428448306022981,0.0033850270143749835,-0.0014111935565108702,0.003910603653559885,0.002083785625368151
2025-01-01T12:00:01.360000,1.353333,8.191135572942693,-0.006610051625398982,-3.8475708628965924e-05,8.191135572942693,-0.006610051625398982,-3.8475708628965924e-05,6.02734487911068,0.003977783345305148,0.0030624434456611115,-0.0015044452636199246,0.0026418731833812714,0.002287166893854664
2025-01-01T12:00:01.366667,1.36,8.231374007127387,-0.0058336227429729845,-3.2801469027103465e-05,8.231374007127387,-0.0058336227429729845,-3.2801469027103465e-05,6.028902667687335,0.005646635092093128,0.001415899231703834,-0.0014132905855404054,0.0021827229729498576,0.00336584266344353
