     Week         GPSTime       E        N          U       VX       VY       VZ          Heading               Pitch                  Roll
   (weeks)              (sec)       (m)    (m)       (m)   (m/s)  (m/s)   (m/s)           (deg)                 (deg)                 (deg)
2129.00000 375149.00 0.000 0.000 0.000 0.000 -0.001 0.001 90.6449827843 -0.7436075448 0.6159067115
2129.00000 375149.10 0.000 0.000 0.000 0.001 -0.000 0.000 90.6444499336 -0.7429199955 0.6164338326
2129.00000 375149.20 0.000 0.000 0.000 -0.000 0.000 0.001 90.6445072294 -0.7424501701 0.6160384917
2129.00000 375149.30 0.000 0.000 0.000 0.001 -0.000 0.000 90.6449197590 -0.7434184688 0.6158093086
2129.00000 375149.40 0.000 0.000 0.000 0.001 -0.000 0.000 90.6446733871 -0.7427080011 0.6167833369
2129.00000 375149.50 0.000 0.000 0.000 -0.000 0.000 0.001 90.6446963054 -0.7425991391 0.6159926551
2129.00000 375149.60 0.000 0.000 0.000 0.001 -0.001 -0.000 90.6452520745 -0.7429944800 0.6157692016
2129.00000 375149.70 0.000 0.000 0.000 0.001 -0.000 0.000 90.6448108970 -0.7423413081 0.6164739397
2129.00000 375149.80 0.000 0.000 0.000 -0.000 0.000 0.001 90.6447707899 -0.7431663673 0.6157863903
2129.00000 375149.90 0.000 0.000 0.000 0.000 0.000 -0.001 90.6456932520 -0.7433325251 0.6155858551
2129.00000 375150.00 0.000 0.000 0.000 0.001 0.001 0.001 90.6454583393 -0.7422037982 0.6155514776
2129.00000 375150.10 0.000 0.000 0.000 0.000 0.000 0.000 90.6456015787 -0.7439856970 0.6155228297
2129.00000 375150.20 0.000 0.000 0.000 0.000 0.000 -0.001 90.6458135731 -0.7425647616 0.6168578214
2129.00000 375150.30 0.000 0.000 0.000 0.001 0.001 0.001 90.6457562773 -0.7420147222 0.6168750101
2129.00000 375150.40 0.000 0.000 0.000 0.000 0.000 0.000 90.6456073083 -0.7429772913 0.6156546100
2129.00000 375150.50 0.000 0.000 0.000 0.001 0.000 -0.000 90.6458765985 -0.7418542940 0.6160327622
2129.00000 375150.60 0.000 0.000 0.000 0.001 0.001 0.001 90.6455328238 -0.7424730884 0.6164796692
2129.00000 375150.70 0.000 0.000 0.000 0.000 0.000 0.000 90.6456646041 -0.7435216012 0.6168177143
2129.00000 375150.80 0.000 0.000 0.000 0.000 0.000 -0.001 90.6460943224 -0.7422152574 0.6169609538
2129.00000 375150.90 0.000 0.000 0.000 0.000 0.000 0.000 90.6455041759 -0.7421235841 0.6170125200
2129.00000 375151.00 0.000 0.000 0.000 0.001 0.000 -0.000 90.6455099055 -0.7430403166 0.6165369650
2129.00000 375151.10 0.000 0.000 0.000 0.000 0.000 -0.001 90.6463808013 -0.7413386320 0.6177802834
2129.00000 375151.20 0.000 0.000 0.000 0.000 -0.001 0.001 90.6451317533 -0.7419459672 0.6170010608
2129.00000 375151.30 0.000 0.000 0.000 0.001 0.000 -0.000 90.6458078435 -0.7419230489 0.6196882329
2129.00000 375151.40 0.000 0.000 0.000 0.001 0.000 -0.000 90.6464782042 -0.7421006658 0.6202611907
2129.00000 375151.50 0.000 0.000 0.000 0.000 0.001 0.001 90.6453609365 -0.7434700350 0.6206106950
2129.00000 375151.60 0.000 0.000 0.000 -0.000 -0.000 -0.002 90.6457906548 -0.7426793532 0.6195048864
2129.00000 375151.70 0.000 0.000 0.000 0.001 0.001 0.001 90.6459797309 -0.7412412291 0.6197913653
2129.00000 375151.80 0.000 0.000 0.000 0.001 -0.000 0.000 90.6452578041 -0.7429028067 0.6205018330
2129.00000 375151.90 0.000 0.000 0.000 -0.000 0.000 -0.002 90.6466615507 -0.7424845476 0.6214013767
2129.00000 375152.00 0.000 0.000 0.000 0.000 0.000 0.002 90.6456646041 -0.7401468797 0.6204846442
2129.00000 375152.10 0.000 0.000 0.000 0.000 -0.001 0.001 90.6444384744 -0.7422897419 0.6222780021
2129.00000 375152.20 0.000 0.000 0.000 0.001 0.000 -0.002 90.6460026492 -0.7426965419 0.6238307178
2129.00000 375152.30 0.000 0.000 0.000 0.001 0.002 0.001 90.6455786604 -0.7419173193 0.6227191796
2129.00000 375152.40 0.000 0.000 0.000 -0.000 0.000 0.000 90.6439571899 -0.7425819504 0.6222092472
2129.00000 375152.50 0.000 0.000 0.000 0.000 -0.002 -0.002 90.6452005083 -0.7410292348 0.6241974107
2129.00000 375152.60 0.000 0.000 0.000 0.001 -0.001 0.001 90.6455442830 -0.7403875220 0.6277841265
2129.00000 375152.70 0.000 0.000 0.000 0.001 -0.000 0.000 90.6441405364 -0.7424100630 0.6279101773
2129.00000 375152.80 0.000 0.000 0.000 0.001 0.001 -0.002 90.6441462659 -0.7414131165 0.6261569264
2129.00000 375152.90 0.000 0.000 0.000 0.001 0.001 0.001 90.6455270942 -0.7403760629 0.6252688418
2129.00000 375153.00 0.000 0.000 0.000 0.000 -0.002 0.000 90.6444270153 -0.7420089926 0.6273945152
2129.00000 375153.10 0.000 0.000 0.000 0.001 -0.001 -0.001 90.6447536012 -0.7415219785 0.6294858112
2129.00000 375153.20 0.000 0.000 0.000 -0.001 0.002 0.001 90.6451145646 -0.7417282433 0.6278185040
2129.00000 375153.30 0.000 0.000 0.000 0.000 0.001 0.001 90.6443926378 -0.7406682713 0.6241401150
2129.00000 375153.40 0.000 0.000 0.000 0.003 -0.001 -0.000 90.6458021140 -0.7402557417 0.6220087120
2129.00000 375153.50 0.000 0.000 0.000 0.000 -0.002 0.001 90.6453666660 -0.7429085363 0.6263803799
2129.00000 375153.60 -0.001 0.000 -0.000 -0.000 -0.001 0.000 90.6439228124 -0.7415334376 0.6288097210
2129.00000 375153.70 -0.001 0.000 -0.000 0.002 0.002 -0.001 90.6451145646 -0.7397343501 0.6271767913
2129.00000 375153.80 -0.001 -0.001 -0.001 0.000 0.000 0.002 90.6451775900 -0.7421121250 0.6255037545
2129.00000 375153.90 -0.001 -0.001 -0.001 -0.000 -0.000 0.001 90.6433097476 -0.7413844686 0.6249136080
2129.00000 375154.00 -0.001 -0.001 -0.001 0.002 -0.001 0.000 90.6450629984 -0.7394192234 0.6275664026
2129.00000 375154.10 -0.002 -0.002 -0.001 0.002 0.000 0.001 90.6457333590 -0.7411782038 0.6264720532
2129.00000 375154.20 -0.002 -0.002 -0.001 -0.000 -0.001 0.000 90.6436993589 -0.7422610940 0.6281221716
2129.00000 375154.30 -0.002 -0.002 -0.001 0.000 0.001 -0.000 90.6443238829 -0.7390353416 0.6253948925
2129.00000 375154.40 -0.002 -0.003 -0.001 0.001 -0.001 0.001 90.6453380182 -0.7405135727 0.6266668588
2129.00000 375154.50 -0.003 -0.002 -0.002 0.001 -0.001 -0.000 90.6437222772 -0.7415735447 0.6259907686
2129.00000 375154.60 -0.003 -0.002 -0.002 0.000 0.000 0.000 90.6444843110 -0.7403703333 0.6267184250
2129.00000 375154.70 -0.003 -0.002 -0.002 -0.000 -0.001 0.000 90.6453838548 -0.7403932516 0.6271481434
2129.00000 375154.80 -0.003 -0.003 -0.002 0.002 -0.001 0.000 90.6441405364 -0.7405250319 0.6279445547
2129.00000 375154.90 -0.003 -0.003 -0.002 0.000 0.001 0.001 90.6440775110 -0.7408115108 0.6263402729
2129.00000 375155.00 -0.003 -0.003 -0.002 -0.000 -0.000 0.001 90.6447536012 -0.7408516178 0.6260423348
2129.00000 375155.10 -0.003 -0.003 -0.002 0.001 -0.000 0.000 90.6439801082 -0.7389379388 0.6240427121
2129.00000 375155.20 -0.003 -0.003 -0.002 0.001 -0.002 0.001 90.6442207505 -0.7400093699 0.6265866448
2129.00000 375155.30 -0.003 -0.003 -0.002 0.000 -0.002 0.001 90.6450458097 -0.7411896629 0.6279273660
2129.00000 375155.40 -0.003 -0.003 -0.002 0.000 -0.000 0.000 90.6445244181 -0.7402786600 0.6281565491
2129.00000 375155.50 -0.003 -0.003 -0.002 0.001 0.001 0.001 90.6445358772 -0.7389780458 0.6261225489
2129.00000 375155.60 -0.003 -0.003 -0.002 0.000 -0.001 0.002 90.6454697984 -0.7407484854 0.6249250671
2129.00000 375155.70 -0.003 -0.003 -0.002 0.001 -0.003 -0.000 90.6448223561 -0.7403932516 0.6274403519
2129.00000 375155.80 -0.003 -0.003 -0.002 -0.000 -0.000 0.001 90.6443926378 -0.7391098261 0.6302822225
2129.00000 375155.90 -0.003 -0.003 -0.002 0.000 0.001 0.001 90.6442665871 -0.7401239614 0.6289071238
2129.00000 375156.00 -0.003 -0.003 -0.002 0.002 0.001 0.000 90.6453380182 -0.7399578037 0.6243291910
2129.00000 375156.10 -0.003 -0.003 -0.002 -0.001 -0.002 0.001 90.6446791167 -0.7403989812 0.6244609713
2129.00000 375156.20 -0.003 -0.003 -0.002 -0.001 -0.003 0.001 90.6440660519 -0.7393103614 0.6264147574
2129.00000 375156.30 -0.003 -0.003 -0.002 0.002 0.000 -0.000 90.6456302266 -0.7390468008 0.6281450900
2129.00000 375156.40 -0.003 -0.003 -0.002 0.001 0.002 0.001 90.6441921026 -0.7405937868 0.6254521883
2129.00000 375156.50 -0.003 -0.003 -0.002 -0.000 -0.000 0.001 90.6444040969 -0.7412469587 0.6233379741
2129.00000 375156.60 -0.003 -0.003 -0.002 0.001 -0.001 -0.000 90.6465870661 -0.7390926374 0.6230113881
2129.00000 375156.70 -0.003 -0.003 -0.002 0.001 -0.001 0.001 90.6453380182 -0.7391556628 0.6240828192
2129.00000 375156.80 -0.003 -0.003 -0.002 0.000 -0.002 0.001 90.6442665871 -0.7404218995 0.6232348417
2129.00000 375156.90 -0.003 -0.003 -0.002 0.002 -0.001 0.000 90.6459224351 -0.7397343501 0.6239223910
2129.00000 375157.00 -0.003 -0.003 -0.002 0.000 -0.001 0.002 90.6450171618 -0.7399807220 0.6246443178
2129.00000 375157.10 -0.003 -0.003 -0.002 -0.000 -0.001 0.000 90.6440717814 -0.7398432121 0.6260308757
2129.00000 375157.20 -0.003 -0.003 -0.002 0.002 -0.000 0.001 90.6456531449 -0.7384681134 0.6257501264
2129.00000 375157.30 -0.003 -0.003 -0.002 0.000 0.002 0.003 90.6458536802 -0.7409318319 0.6231488980
2129.00000 375157.40 -0.003 -0.003 -0.002 -0.001 -0.001 -0.001 90.6463406943 -0.7398604009 0.6218253655
2129.00000 375157.50 -0.003 -0.003 -0.002 0.002 -0.004 0.001 90.6445301477 -0.7387946994 0.6233666219
2129.00000 375157.60 -0.003 -0.003 -0.002 0.001 -0.002 0.002 90.6447650604 -0.7397801868 0.6306431859
2129.00000 375157.70 -0.003 -0.003 -0.002 0.001 -0.000 0.000 90.6462833985 -0.7414474939 0.6303051408
2129.00000 375157.80 -0.003 -0.003 -0.002 0.000 0.002 0.001 90.6443410716 -0.7396713248 0.6264777828
2129.00000 375157.90 -0.003 -0.003 -0.002 0.000 0.000 0.002 90.6452807224 -0.7384623838 0.6229884698
2129.00000 375158.00 -0.003 -0.003 -0.002 0.001 -0.003 0.001 90.6461516182 -0.7411438263 0.6241744924
2129.00000 375158.10 -0.003 -0.003 -0.002 0.000 -0.002 0.001 90.6448338153 -0.7403817924 0.6279445547
2129.00000 375158.20 -0.003 -0.003 -0.002 0.000 0.002 0.001 90.6448796519 -0.7390124233 0.6261397377
2129.00000 375158.30 -0.003 -0.003 -0.002 0.001 -0.000 0.000 90.6460083788 -0.7397973755 0.6243864868
2129.00000 375158.40 -0.003 -0.003 -0.002 0.002 -0.000 0.001 90.6456244971 -0.7397343501 0.6240484417
2129.00000 375158.50 -0.003 -0.003 -0.002 -0.000 -0.000 0.001 90.6450458097 -0.7407141080 0.6247359911
2129.00000 375158.60 -0.003 -0.003 -0.002 0.001 -0.001 -0.000 90.6450343505 -0.7390410712 0.6255553207
2129.00000 375158.70 -0.003 -0.003 -0.002 0.002 0.000 0.001 90.6453723956 -0.7394650600 0.6254349996
2129.00000 375158.80 -0.003 -0.003 -0.002 -0.000 0.000 0.001 90.6457505478 -0.7405193023 0.6231488980
2129.00000 375158.90 -0.003 -0.003 -0.002 0.000 -0.002 0.000 90.6450228914 -0.7397458093 0.6238307178
2129.00000 375159.00 -0.003 -0.003 -0.002 0.000 0.000 0.002 90.6453494773 -0.7387660515 0.6241343854
2129.00000 375159.10 -0.003 -0.003 -0.002 0.000 -0.001 0.001 90.6460542154 -0.7404047108 0.6249422559
2129.00000 375159.20 -0.003 -0.003 -0.002 0.000 -0.001 -0.001 90.6449197590 -0.7403989812 0.6246156699
2129.00000 375159.30 -0.003 -0.003 -0.002 0.001 0.001 0.001 90.6452692632 -0.7389895050 0.6245927516
2129.00000 375159.40 -0.003 -0.003 -0.002 0.000 -0.001 0.001 90.6459797309 -0.7403359558 0.6232692191
2129.00000 375159.50 -0.003 -0.003 -0.002 0.000 -0.002 0.000 90.6450744576 -0.7406682713 0.6258360700
2129.00000 375159.60 -0.003 -0.003 -0.002 0.001 -0.000 0.000 90.6451718604 -0.7390468008 0.6267699912
2129.00000 375159.70 -0.003 -0.003 -0.002 0.001 0.002 0.001 90.6458078435 -0.7394707896 0.6249422559
2129.00000 375159.80 -0.003 -0.003 -0.002 0.000 -0.001 0.001 90.6454640689 -0.7400380178 0.6228853374
2129.00000 375159.90 -0.003 -0.003 -0.002 0.000 -0.002 0.001 90.6453093703 -0.7389837754 0.6239109319
2129.00000 375160.00 -0.003 -0.003 -0.002 0.000 -0.001 0.001 90.6461229703 -0.7394249529 0.6256469940
2129.00000 375160.10 -0.003 -0.003 -0.002 -0.000 -0.000 0.001 90.6456474154 -0.7406568122 0.6249307967
2129.00000 375160.20 -0.003 -0.003 -0.002 0.001 -0.000 0.000 90.6452005083 -0.7381529866 0.6250797658
2129.00000 375160.30 -0.003 -0.003 -0.002 0.002 0.001 0.002 90.6465584183 -0.7389035613 0.6240083347
2129.00000 375160.40 -0.003 -0.003 -0.002 0.000 -0.002 0.001 90.6462261027 -0.7409203728 0.6238937431
2129.00000 375160.50 -0.003 -0.003 -0.002 -0.000 -0.001 0.000 90.6449827843 -0.7387431332 0.6259907686
2129.00000 375160.60 -0.003 -0.003 -0.002 0.001 0.001 0.001 90.6462490210 -0.7381300683 0.6266210222
2129.00000 375160.70 -0.003 -0.003 -0.002 0.000 -0.001 0.001 90.6463922605 -0.7398661304 0.6252688418
2129.00000 375160.80 -0.003 -0.003 -0.002 0.001 -0.000 0.000 90.6451317533 -0.7394822487 0.6246500474
2129.00000 375160.90 -0.003 -0.003 -0.002 -0.000 -0.000 0.001 90.6458364914 -0.7388061585 0.6248333939
2129.00000 375161.00 -0.003 -0.003 -0.002 0.000 -0.002 0.001 90.6463979901 -0.7389322092 0.6249766334
2129.00000 375161.10 -0.003 -0.003 -0.002 0.002 0.001 0.002 90.6454067731 -0.7386056233 0.6251828982
2129.00000 375161.20 -0.003 -0.003 -0.002 -0.000 -0.000 0.001 90.6459568126 -0.7398031051 0.6248391235
2129.00000 375161.30 -0.003 -0.003 -0.002 0.000 -0.001 -0.001 90.6460885929 -0.7403244967 0.6229655515
2129.00000 375161.40 -0.003 -0.003 -0.002 0.001 -0.001 0.001 90.6458880576 -0.7385827050 0.6258360700
2129.00000 375161.50 -0.003 -0.003 -0.002 0.001 0.001 0.001 90.6456703337 -0.7403932516 0.6242088699
2129.00000 375161.60 -0.003 -0.003 -0.002 -0.001 0.000 -0.000 90.6467589535 -0.7405193023 0.6230228473
2129.00000 375161.70 -0.003 -0.003 -0.002 0.000 -0.001 0.001 90.6457791957 -0.7372247950 0.6229426332
2129.00000 375161.80 -0.003 -0.003 -0.002 0.001 -0.001 0.002 90.6446963054 -0.7402729305 0.6255152137
2129.00000 375161.90 -0.003 -0.003 -0.002 0.000 0.000 0.000 90.6470167845 -0.7403531446 0.6254006221
2129.00000 375162.00 -0.003 -0.003 -0.002 0.000 0.001 0.001 90.6464151788 -0.7389379388 0.6237848811
2129.00000 375162.10 -0.003 -0.003 -0.002 0.000 0.000 0.002 90.6442723167 -0.7390811783 0.6224384303
2129.00000 375162.20 -0.003 -0.003 -0.002 0.001 -0.003 0.000 90.6470511620 -0.7404963840 0.6239052023
2129.00000 375162.30 -0.003 -0.003 -0.002 0.000 -0.001 0.001 90.6463177760 -0.7395280853 0.6255495911
2129.00000 375162.40 -0.003 -0.003 -0.002 -0.000 0.001 0.002 90.6449025702 -0.7390066937 0.6253318672
2129.00000 375162.50 -0.003 -0.003 -0.002 0.001 -0.000 0.000 90.6466386324 -0.7391613923 0.6231660867
2129.00000 375162.60 -0.003 -0.003 -0.002 0.002 -0.001 0.000 90.6464380971 -0.7392587952 0.6235728868
2129.00000 375162.70 -0.003 -0.003 -0.002 0.000 -0.001 0.001 90.6456416858 -0.7398202938 0.6250683066
2129.00000 375162.80 -0.003 -0.003 -0.002 -0.000 -0.000 0.001 90.6464151788 -0.7403073079 0.6248792305
2129.00000 375162.90 -0.003 -0.003 -0.002 0.001 -0.000 0.000 90.6466042549 -0.7380498542 0.6244953488
2129.00000 375163.00 -0.003 -0.003 -0.002 0.000 0.000 0.002 90.6455901196 -0.7390582599 0.6247703685
2129.00000 375163.10 -0.003 -0.003 -0.002 -0.000 -0.000 0.001 90.6463521535 -0.7401411502 0.6254865658
2129.00000 375163.20 -0.003 -0.003 -0.002 0.000 0.000 0.000 90.6466730098 -0.7380785021 0.6262772475
2129.00000 375163.30 -0.003 -0.003 -0.002 0.000 0.001 0.001 90.6463235056 -0.7368581020 0.6256011573
2129.00000 375163.40 -0.003 -0.003 -0.002 0.000 -0.001 0.001 90.6460542154 -0.7379982880 0.6257673151
2129.00000 375163.50 -0.003 -0.003 -0.002 0.002 -0.001 0.000 90.6455901196 -0.7395624628 0.6268215575
2129.00000 375163.60 -0.003 -0.003 -0.002 0.000 0.002 0.000 90.6462089140 -0.7388405360 0.6263230842
2129.00000 375163.70 -0.003 -0.003 -0.002 -0.002 0.004 0.001 90.6478361141 -0.7384165472 0.6200320076
2129.00000 375163.80 -0.003 -0.003 -0.002 0.002 -0.003 -0.002 90.6470511620 -0.7376946204 0.6191496526
2129.00000 375163.90 -0.003 -0.003 -0.002 0.001 -0.000 0.000 90.6456244971 -0.7391556628 0.6199861710
2129.00000 375164.00 -0.003 -0.003 -0.002 -0.001 -0.002 0.001 90.6476470381 -0.7392129585 0.6246443178
2129.00000 375164.10 -0.003 -0.003 -0.002 0.001 -0.001 -0.001 90.6464438267 -0.7388348064 0.6240828192
2129.00000 375164.20 -0.003 -0.003 -0.002 0.001 0.001 0.000 90.6451775900 -0.7375284626 0.6251771686
2129.00000 375164.30 -0.003 -0.003 -0.002 -0.000 0.001 0.002 90.6464209084 -0.7391212853 0.6226905317
2129.00000 375164.40 -0.003 -0.003 -0.002 0.001 -0.002 -0.001 90.6462547506 -0.7389780458 0.6227478275
2129.00000 375164.50 -0.003 -0.003 -0.002 0.001 -0.000 0.000 90.6450973759 -0.7382847669 0.6247760981
2129.00000 375164.60 -0.003 -0.003 -0.002 -0.001 0.001 0.001 90.6471084577 -0.7399348854 0.6233551628
2129.00000 375164.70 -0.003 -0.003 -0.002 0.000 -0.000 -0.001 90.6476928747 -0.7373966823 0.6206679907
2129.00000 375164.80 -0.003 -0.003 -0.002 0.003 -0.001 0.001 90.6447077646 -0.7397515389 0.6251313320
2129.00000 375164.90 -0.003 -0.003 -0.002 -0.001 -0.000 0.002 90.6462662098 -0.7419058602 0.6229941994
2129.00000 375165.00 -0.003 -0.003 -0.002 -0.000 0.001 -0.001 90.6475095282 -0.7391155557 0.6229254444
2129.00000 375165.10 -0.003 -0.003 -0.002 0.000 -0.001 0.001 90.6450973759 -0.7380383951 0.6198486611
2129.00000 375165.20 -0.003 -0.003 -0.002 0.001 -0.001 0.001 90.6463464239 -0.7395624628 0.6231259797
2129.00000 375165.30 -0.003 -0.003 -0.002 0.001 -0.002 -0.001 90.6476126606 -0.7416766771 0.6230171177
2129.00000 375165.40 -0.003 -0.003 -0.002 -0.001 0.002 0.001 90.6448567336 -0.7386400007 0.6238364473
2129.00000 375165.50 -0.003 -0.003 -0.002 -0.000 0.000 0.001 90.6462891281 -0.7390811783 0.6212524077
2129.00000 375165.60 -0.003 -0.003 -0.002 0.002 -0.002 -0.000 90.6475610944 -0.7406911897 0.6217165035
2129.00000 375165.70 -0.003 -0.003 -0.002 0.000 -0.001 0.001 90.6450343505 -0.7399005079 0.6240828192
2129.00000 375165.80 -0.003 -0.003 -0.002 -0.001 0.001 0.001 90.6461172408 -0.7409203728 0.6231546276
2129.00000 375165.90 -0.003 -0.003 -0.002 0.001 -0.001 -0.001 90.6473949366 -0.7391499332 0.6218826613
2129.00000 375166.00 -0.003 -0.003 -0.002 0.002 -0.000 0.001 90.6452807224 -0.7401354206 0.6221233035
2129.00000 375166.10 -0.003 -0.003 -0.002 -0.000 -0.000 0.001 90.6454583393 -0.7415277080 0.6236072642
2129.00000 375166.20 -0.003 -0.003 -0.002 0.000 0.000 -0.000 90.6478876803 -0.7398317530 0.6231374388
2129.00000 375166.30 -0.003 -0.003 -0.002 0.001 0.001 0.000 90.6461115112 -0.7384795726 0.6214185654
2129.00000 375166.40 -0.003 -0.003 -0.002 0.000 -0.001 0.001 90.6454125027 -0.7402672009 0.6216878556
2129.00000 375166.50 -0.003 -0.003 -0.002 -0.000 -0.002 -0.001 90.6471371056 -0.7413959277 0.6231374388
2129.00000 375166.60 -0.003 -0.003 -0.002 0.000 0.001 -0.000 90.6464037197 -0.7384451951 0.6241687629
2129.00000 375166.70 -0.003 -0.003 -0.002 0.000 0.002 0.001 90.6457161703 -0.7395510036 0.6220946556
2129.00000 375166.80 -0.003 -0.003 -0.002 0.001 -0.001 -0.000 90.6468277084 -0.7405021136 0.6211664640
2129.00000 375166.90 -0.003 -0.003 -0.002 0.000 0.000 0.000 90.6468334380 -0.7398088347 0.6229884698
2129.00000 375167.00 -0.003 -0.003 -0.002 -0.000 0.000 0.001 90.6464209084 -0.7398718600 0.6230113881
2129.00000 375167.10 -0.003 -0.003 -0.002 0.001 -0.001 -0.001 90.6468047901 -0.7398145642 0.6221404923
2129.00000 375167.20 -0.003 -0.003 -0.002 0.001 0.001 0.001 90.6466615507 -0.7399119671 0.6224040529
2129.00000 375167.30 -0.003 -0.003 -0.002 -0.000 -0.000 0.001 90.6461745365 -0.7411782038 0.6215216978
2129.00000 375167.40 -0.003 -0.003 -0.002 -0.001 -0.001 -0.001 90.6469079225 -0.7406281643 0.6224155120
2129.00000 375167.50 -0.003 -0.003 -0.002 0.001 -0.000 0.000 90.6469824070 -0.7385597867 0.6225472923
2129.00000 375167.60 -0.003 -0.003 -0.002 0.001 0.001 0.001 90.6462776689 -0.7409432911 0.6230113881
2129.00000 375167.70 -0.003 -0.003 -0.002 0.000 0.000 -0.000 90.6470683507 -0.7406969192 0.6212810556
2129.00000 375167.80 -0.003 -0.003 -0.002 0.001 -0.000 0.000 90.6469766774 -0.7384910317 0.6229598219
2129.00000 375167.90 -0.003 -0.003 -0.002 -0.000 0.000 0.001 90.6466500915 -0.7402041755 0.6221290331
2129.00000 375168.00 -0.003 -0.003 -0.002 0.000 -0.001 -0.001 90.6472803451 -0.7391671219 0.6225071853
2129.00000 375168.10 -0.003 -0.003 -0.002 0.001 0.000 -0.000 90.6470626211 -0.7382332007 0.6221576810
2129.00000 375168.20 -0.003 -0.003 -0.002 -0.000 -0.000 0.001 90.6462547506 -0.7397458093 0.6234181881
2129.00000 375168.30 -0.003 -0.003 -0.002 0.000 0.000 -0.001 90.6474063958 -0.7397572684 0.6227707458
2129.00000 375168.40 -0.003 -0.003 -0.002 0.001 0.001 0.000 90.6482314550 -0.7381873641 0.6216420190
2129.00000 375168.50 -0.003 -0.003 -0.002 0.000 0.000 0.002 90.6470110549 -0.7389207501 0.6214873204
2129.00000 375168.60 -0.003 -0.003 -0.002 0.001 -0.001 -0.000 90.6471371056 -0.7400953135 0.6217394218
2129.00000 375168.70 -0.003 -0.003 -0.002 0.000 -0.000 -0.001 90.6477960071 -0.7383477923 0.6236301825
2129.00000 375168.80 -0.003 -0.003 -0.002 0.000 0.002 0.001 90.6465756070 -0.7386629191 0.6232463008
2129.00000 375168.90 -0.003 -0.003 -0.002 0.000 0.000 -0.001 90.6473147225 -0.7395567332 0.6220602782
2129.00000 375169.00 -0.003 -0.003 -0.002 0.001 -0.001 -0.001 90.6484835565 -0.7384623838 0.6202841090
2129.00000 375169.10 -0.003 -0.003 -0.002 -0.000 -0.000 0.001 90.6465469591 -0.7388176177 0.6234296473
2129.00000 375169.20 -0.003 -0.003 -0.002 0.000 0.000 0.000 90.6470969986 -0.7387431332 0.6229884698
2129.00000 375169.30 -0.003 -0.003 -0.002 0.002 0.002 -0.001 90.6488044128 -0.7386629191 0.6222722726
2129.00000 375169.40 -0.003 -0.003 -0.002 0.000 0.002 0.001 90.6469308408 -0.7385139500 0.6206049654
2129.00000 375169.50 -0.003 -0.003 -0.002 -0.000 -0.001 -0.001 90.6473892071 -0.7398317530 0.6200434667
2129.00000 375169.60 -0.003 -0.003 -0.002 0.001 -0.001 -0.001 90.6484148015 -0.7384280064 0.6218425542
2129.00000 375169.70 -0.003 -0.003 -0.002 -0.000 0.002 -0.001 90.6468506267 -0.7373508457 0.6222550838
2129.00000 375169.80 -0.003 -0.003 -0.002 0.000 0.000 -0.000 90.6468105197 -0.7354027892 0.6198200132
2129.00000 375169.90 -0.003 -0.003 -0.002 0.005 -0.000 0.002 90.6490049480 -0.7402614713 0.6230916022
2129.00000 375170.00 -0.003 -0.003 -0.002 0.000 -0.001 0.001 90.6483689649 -0.7454925760 0.6226217768
2129.00000 375170.10 -0.003 -0.003 -0.002 -0.002 0.002 -0.003 90.6483231283 -0.7429429138 0.6220946556
2129.00000 375170.20 -0.003 -0.003 -0.002 0.000 -0.002 0.000 90.6478475733 -0.7388290768 0.6239682276
2129.00000 375170.30 -0.003 -0.003 -0.002 0.001 -0.002 0.001 90.6449541364 -0.7403989812 0.6282825998
2129.00000 375170.40 -0.003 -0.003 -0.002 0.001 0.002 -0.001 90.6484090719 -0.7435101420 0.6294285154
2129.00000 375170.50 -0.003 -0.003 -0.002 0.000 0.002 0.000 90.6487241987 -0.7424845476 0.6249766334
2129.00000 375170.60 -0.003 -0.003 -0.002 0.001 0.002 0.001 90.6466901986 -0.7428168631 0.6221061148
2129.00000 375170.70 -0.003 -0.003 -0.002 0.001 -0.003 -0.001 90.6489247340 -0.7459967788 0.6240026051
2129.00000 375170.80 -0.003 -0.003 -0.002 -0.001 -0.002 -0.001 90.6474923395 -0.7440315336 0.6290217154
2129.00000 375170.90 -0.003 -0.003 -0.002 -0.000 0.002 -0.000 90.6464380971 -0.7406568122 0.6304197324
2129.00000 375171.00 -0.003 -0.003 -0.002 0.000 0.002 0.000 90.6482199959 -0.7419746151 0.6249479855
2129.00000 375171.10 -0.003 -0.003 -0.002 0.000 -0.001 -0.001 90.6474694212 -0.7427022715 0.6250281996
2129.00000 375171.20 -0.003 -0.003 -0.002 -0.001 0.001 -0.001 90.6476069310 -0.7379123443 0.6242718953
2129.00000 375171.30 -0.003 -0.003 -0.002 0.001 0.001 0.001 90.6495607171 -0.7385540571 0.6255152137
2129.00000 375171.40 -0.003 -0.003 -0.002 0.004 -0.001 -0.001 90.6476241198 -0.7417225137 0.6229941994
2129.00000 375171.50 -0.003 -0.003 -0.002 -0.000 0.001 -0.001 90.6480194606 -0.7416308404 0.6253490559
2129.00000 375171.60 -0.003 -0.003 -0.002 -0.002 -0.000 0.000 90.6482658325 -0.7388691839 0.6236817487
2129.00000 375171.70 -0.003 -0.003 -0.002 0.002 -0.001 -0.001 90.6481627001 -0.7402729305 0.6268559349
2129.00000 375171.80 -0.003 -0.003 -0.002 0.002 0.001 -0.002 90.6480137311 -0.7415850038 0.6242604361
2129.00000 375171.90 -0.003 -0.003 -0.002 -0.001 0.001 0.001 90.6488158720 -0.7424558997 0.6260537940
2129.00000 375172.00 -0.003 -0.003 -0.002 -0.000 -0.001 -0.002 90.6483345874 -0.7411323672 0.6223352979
2129.00000 375172.10 -0.003 -0.003 -0.002 0.003 -0.001 -0.000 90.6491653762 -0.7404620065 0.6269991744
2129.00000 375172.20 -0.003 -0.003 -0.002 0.002 -0.001 0.003 90.6484434494 -0.7470223733 0.6279674730
2129.00000 375172.30 -0.003 -0.003 -0.002 -0.001 0.000 -0.002 90.6475610944 -0.7483344466 0.6287409661
2129.00000 375172.40 -0.003 -0.003 -0.002 -0.003 0.003 -0.004 90.6491138100 -0.7399979107 0.6252344644
2129.00000 375172.50 -0.003 -0.003 -0.002 0.000 0.000 0.002 90.6498300073 -0.7348241018 0.6209601992
2129.00000 375172.60 -0.003 -0.003 -0.002 0.003 -0.002 0.000 90.6475209874 -0.7404104403 0.6211034387
2129.00000 375172.70 -0.003 -0.003 -0.002 0.003 -0.001 -0.000 90.6489591114 -0.7421636912 0.6269361490
2129.00000 375172.80 -0.003 -0.003 -0.002 -0.004 -0.000 0.000 90.6479564353 -0.7442034209 0.6306661043
2129.00000 375172.90 -0.003 -0.003 -0.002 -0.004 0.001 -0.003 90.6451202942 -0.7353684117 0.6276695350
2129.00000 375173.00 -0.003 -0.003 -0.002 0.005 0.004 0.000 90.6493372636 -0.7346464849 0.6243922164
2129.00000 375173.10 -0.003 -0.003 -0.002 0.005 -0.001 0.001 90.6512108356 -0.7427824856 0.6171099228
2129.00000 375173.20 -0.003 -0.003 -0.002 -0.004 -0.003 -0.000 90.6464266380 -0.7465926549 0.6224384303
2129.00000 375173.30 -0.003 -0.003 -0.002 -0.003 -0.002 -0.003 90.6470568915 -0.7378321303 0.6270908476
2129.00000 375173.40 -0.003 -0.003 -0.002 0.003 0.001 -0.000 90.6497268749 -0.7366976738 0.6294686225
2129.00000 375173.50 -0.003 -0.003 -0.002 0.000 0.002 0.000 90.6457677365 -0.7421808799 0.6240656305
2129.00000 375173.60 -0.003 -0.003 -0.002 0.000 -0.001 -0.001 90.6474980690 -0.7417339728 0.6230514952
2129.00000 375173.70 -0.003 -0.003 -0.002 -0.001 -0.002 -0.001 90.6489648410 -0.7410521531 0.6244437826
2129.00000 375173.80 -0.003 -0.003 -0.002 0.000 -0.001 -0.001 90.6467876014 -0.7393390093 0.6280476871
2129.00000 375173.90 -0.003 -0.003 -0.002 0.001 0.001 0.000 90.6480022719 -0.7406969192 0.6261683856
2129.00000 375174.00 -0.003 -0.003 -0.002 0.000 0.001 0.001 90.6484835565 -0.7408401587 0.6218883908
2129.00000 375174.10 -0.003 -0.003 -0.002 -0.002 -0.000 -0.001 90.6480538381 -0.7413214432 0.6216993148
2129.00000 375174.20 -0.003 -0.003 -0.002 0.000 -0.002 -0.001 90.6485981480 -0.7395853811 0.6237619628
2129.00000 375174.30 -0.003 -0.003 -0.002 0.001 -0.000 0.000 90.6480824860 -0.7402385530 0.6256126165
2129.00000 375174.40 -0.003 -0.003 -0.002 -0.001 0.000 -0.000 90.6472746155 -0.7423183898 0.6247016136
2129.00000 375174.50 -0.003 -0.003 -0.002 -0.001 -0.001 -0.001 90.6477788184 -0.7400666657 0.6251313320
2129.00000 375174.60 -0.003 -0.003 -0.002 0.001 -0.000 0.000 90.6481283226 -0.7387259444 0.6246328587
2129.00000 375174.70 -0.003 -0.003 -0.002 0.000 0.000 0.000 90.6481798888 -0.7412698770 0.6242604361
2129.00000 375174.80 -0.003 -0.003 -0.002 0.000 0.000 -0.000 90.6480423789 -0.7412068517 0.6233322445
2129.00000 375174.90 -0.003 -0.003 -0.002 -0.000 0.000 0.000 90.6480824860 -0.7396082994 0.6250339291
2129.00000 375175.00 -0.003 -0.003 -0.002 -0.000 -0.001 0.000 90.6478418437 -0.7399176966 0.6237390445
2129.00000 375175.10 -0.003 -0.003 -0.002 0.000 -0.000 -0.001 90.6478246550 -0.7403875220 0.6262199518
2129.00000 375175.20 -0.003 -0.003 -0.002 0.000 0.001 -0.000 90.6487299283 -0.7392874431 0.6234124586
2129.00000 375175.30 -0.003 -0.003 -0.002 -0.000 -0.001 0.000 90.6479736240 -0.7411953925 0.6226848022
2129.00000 375175.40 -0.003 -0.003 -0.002 0.000 -0.003 -0.002 90.6469308408 -0.7407141080 0.6255667799
2129.00000 375175.50 -0.003 -0.003 -0.002 0.000 0.000 -0.001 90.6484835565 -0.7395338149 0.6267642617
2129.00000 375175.60 -0.003 -0.003 -0.002 -0.001 0.001 0.000 90.6483632353 -0.7402270938 0.6244151347
2129.00000 375175.70 -0.003 -0.003 -0.002 0.000 0.000 -0.001 90.6477100634 -0.7408630770 0.6223352979
2129.00000 375175.80 -0.003 -0.003 -0.002 0.000 -0.002 0.001 90.6482257254 -0.7402099051 0.6237333149
2129.00000 375175.90 -0.003 -0.003 -0.002 -0.000 -0.001 0.000 90.6483861536 -0.7407599446 0.6250339291
2129.00000 375176.00 -0.003 -0.003 -0.002 0.000 -0.001 -0.001 90.6483288578 -0.7413787390 0.6254292700
2129.00000 375176.10 -0.003 -0.003 -0.002 0.000 0.000 -0.001 90.6478533029 -0.7400265586 0.6230973318
2129.00000 375176.20 -0.003 -0.003 -0.002 -0.000 -0.001 0.000 90.6481856184 -0.7405364911 0.6229426332
2129.00000 375176.30 -0.003 -0.003 -0.002 -0.000 -0.002 -0.000 90.6488216015 -0.7410235052 0.6239510389
2129.00000 375176.40 -0.003 -0.003 -0.002 0.001 -0.001 -0.000 90.6472803451 -0.7395510036 0.6253719742
2129.00000 375176.50 -0.003 -0.003 -0.002 0.000 0.001 0.001 90.6479392465 -0.7408516178 0.6245354558
2129.00000 375176.60 -0.003 -0.003 -0.002 -0.000 -0.000 0.001 90.6490679734 -0.7420147222 0.6231317093
2129.00000 375176.70 -0.003 -0.003 -0.002 0.000 -0.000 -0.001 90.6480824860 -0.7398718600 0.6221634106
2129.00000 375176.80 -0.003 -0.003 -0.002 -0.001 -0.001 0.002 90.6480996747 -0.7402729305 0.6244953488
2129.00000 375176.90 -0.003 -0.003 -0.002 0.000 -0.002 0.000 90.6481741592 -0.7411724742 0.6250797658
2129.00000 375177.00 -0.003 -0.003 -0.002 0.000 -0.000 -0.001 90.6473319113 -0.7397228910 0.6277325603
2129.00000 375177.10 -0.003 -0.003 -0.002 0.000 0.001 0.001 90.6483173987 -0.7404734657 0.6253605151
2129.00000 375177.20 -0.003 -0.003 -0.002 -0.000 -0.001 0.000 90.6485122043 -0.7408573474 0.6234353769
2129.00000 375177.30 -0.003 -0.003 -0.002 0.001 -0.002 -0.001 90.6473376409 -0.7408573474 0.6248677714
2129.00000 375177.40 -0.003 -0.003 -0.002 -0.000 -0.000 0.001 90.6478246550 -0.7393504684 0.6257042898
2129.00000 375177.50 -0.003 -0.003 -0.002 0.000 -0.001 0.001 90.6487643058 -0.7404161699 0.6260480644
2129.00000 375177.60 -0.003 -0.003 -0.002 0.001 -0.001 -0.001 90.6478819508 -0.7413615503 0.6245010784
2129.00000 375177.70 -0.003 -0.003 -0.002 -0.000 -0.001 0.000 90.6475267169 -0.7406969192 0.6249193376
2129.00000 375177.80 -0.003 -0.003 -0.002 -0.002 -0.002 0.000 90.6480882156 -0.7405765981 0.6263631912
2129.00000 375177.90 -0.003 -0.003 -0.002 0.001 -0.001 -0.000 90.6482371846 -0.7390296120 0.6282482224
2129.00000 375178.00 -0.003 -0.003 -0.002 0.002 0.000 0.001 90.6476012014 -0.7416537588 0.6260881715
2129.00000 375178.10 -0.003 -0.003 -0.002 -0.002 -0.001 -0.000 90.6472173197 -0.7425418433 0.6250625770
2129.00000 375178.20 -0.003 -0.003 -0.002 -0.001 -0.002 -0.001 90.6487070100 -0.7394306825 0.6250052812
2129.00000 375178.30 -0.003 -0.003 -0.002 0.001 -0.001 0.001 90.6485064748 -0.7392473360 0.6253662447
2129.00000 375178.40 -0.003 -0.003 -0.002 0.000 -0.002 0.001 90.6470282437 -0.7420892067 0.6258876362
2129.00000 375178.50 -0.003 -0.003 -0.002 -0.001 -0.001 -0.000 90.6482085367 -0.7416422996 0.6266840476
2129.00000 375178.60 -0.003 -0.003 -0.002 -0.000 -0.000 0.001 90.6486439846 -0.7375513809 0.6254063517
2129.00000 375178.70 -0.003 -0.003 -0.002 0.001 -0.000 0.002 90.6479163282 -0.7397687276 0.6245812925
2129.00000 375178.80 -0.003 -0.003 -0.002 0.000 -0.002 0.000 90.6482142663 -0.7426048687 0.6252974897
2129.00000 375178.90 -0.003 -0.003 -0.002 -0.001 -0.001 -0.000 90.6482543733 -0.7394421417 0.6268158279
2129.00000 375179.00 -0.003 -0.003 -0.002 -0.000 -0.000 0.001 90.6479564353 -0.7388405360 0.6268960420
2129.00000 375179.10 -0.003 -0.003 -0.002 0.001 -0.001 -0.000 90.6482601029 -0.7407714037 0.6254120813
2129.00000 375179.20 -0.003 -0.003 -0.002 -0.000 -0.001 0.000 90.6487070100 -0.7408516178 0.6256813714
2129.00000 375179.30 -0.003 -0.003 -0.002 -0.000 -0.001 0.000 90.6480251902 -0.7393676571 0.6258246109
2129.00000 375179.40 -0.003 -0.003 -0.002 0.000 -0.002 0.001 90.6484892860 -0.7398031051 0.6276294279
2129.00000 375179.50 -0.003 -0.003 -0.002 0.001 -0.001 -0.000 90.6486038776 -0.7393160909 0.6260423348
2129.00000 375179.60 -0.003 -0.003 -0.002 -0.000 0.000 0.001 90.6479850832 -0.7400322882 0.6250339291
2129.00000 375179.70 -0.003 -0.003 -0.002 -0.001 -0.003 0.001 90.6481684297 -0.7406224347 0.6245870221
2129.00000 375179.80 -0.003 -0.003 -0.002 0.000 -0.002 0.001 90.6483517762 -0.7383707106 0.6268272870
2129.00000 375179.90 -0.003 -0.003 -0.002 0.000 0.000 0.002 90.6480080015 -0.7392931726 0.6269017715
2129.00000 375180.00 -0.003 -0.003 -0.002 0.000 -0.001 -0.001 90.6484434494 -0.7408974545 0.6245812925
2129.00000 375180.10 -0.003 -0.003 -0.002 0.000 -0.002 0.001 90.6482772916 -0.7394879783 0.6252230052
2129.00000 375180.20 -0.003 -0.003 -0.002 -0.000 -0.000 0.001 90.6480939451 -0.7388233472 0.6254063517
2129.00000 375180.30 -0.003 -0.003 -0.002 -0.000 -0.001 0.000 90.6489533818 -0.7391613923 0.6264262166
2129.00000 375180.40 -0.003 -0.003 -0.002 0.001 -0.001 -0.000 90.6482830212 -0.7389493980 0.6252459235
2129.00000 375180.50 -0.003 -0.003 -0.002 -0.000 -0.000 0.001 90.6478819508 -0.7395280853 0.6258360700
2129.00000 375180.60 -0.003 -0.003 -0.002 -0.001 -0.001 -0.000 90.6488617086 -0.7397286206 0.6262371405
2129.00000 375180.70 -0.003 -0.003 -0.002 0.001 -0.001 -0.000 90.6486783621 -0.7382102824 0.6273601378
2129.00000 375180.80 -0.003 -0.003 -0.002 0.000 0.000 0.002 90.6478475733 -0.7388405360 0.6264434053
2129.00000 375180.90 -0.003 -0.003 -0.002 -0.001 -0.000 0.000 90.6487070100 -0.7397343501 0.6250568474
2129.00000 375181.00 -0.003 -0.003 -0.002 -0.000 -0.002 -0.000 90.6488731678 -0.7380613134 0.6254808362
2129.00000 375181.10 -0.003 -0.003 -0.002 0.000 -0.001 0.001 90.6482887508 -0.7371846879 0.6262887067
2129.00000 375181.20 -0.003 -0.003 -0.002 0.000 -0.002 0.001 90.6486726325 -0.7398661304 0.6263173546
2129.00000 375181.30 -0.003 -0.003 -0.002 -0.001 -0.002 -0.001 90.6485924184 -0.7390697191 0.6261569264
2129.00000 375181.40 -0.003 -0.003 -0.002 0.000 0.000 0.000 90.6483632353 -0.7373794936 0.6256527235
2129.00000 375181.50 -0.003 -0.003 -0.002 -0.000 -0.000 0.001 90.6490450551 -0.7391957698 0.6244896192
2129.00000 375181.60 -0.003 -0.003 -0.002 0.001 -0.002 -0.001 90.6487643058 -0.7388863726 0.6244724305
2129.00000 375181.70 -0.003 -0.003 -0.002 -0.000 -0.000 0.001 90.6480996747 -0.7381243387 0.6261741151
2129.00000 375181.80 -0.003 -0.003 -0.002 -0.000 -0.000 0.001 90.6488960861 -0.7390066937 0.6258074222
2129.00000 375181.90 -0.003 -0.003 -0.002 0.001 -0.002 -0.001 90.6489877593 -0.7387660515 0.6253948925
2129.00000 375182.00 -0.003 -0.003 -0.002 0.000 0.000 -0.001 90.6482371846 -0.7383306035 0.6245469150
2129.00000 375182.10 -0.003 -0.003 -0.002 -0.000 -0.002 0.002 90.6495435284 -0.7388061585 0.6254178109
2129.00000 375182.20 -0.003 -0.003 -0.002 0.001 -0.002 -0.001 90.6476986043 -0.7413844686 0.6268616645
2129.00000 375182.30 -0.003 -0.003 -0.002 -0.000 -0.000 -0.002 90.6480939451 -0.7373794936 0.6285518900
2129.00000 375182.40 -0.003 -0.003 -0.002 -0.001 0.003 0.001 90.6495893650 -0.7388634543 0.6257272081
2129.00000 375182.50 -0.003 -0.003 -0.002 0.001 -0.002 -0.001 90.6487643058 -0.7378206711 0.6222436247
2129.00000 375182.60 -0.003 -0.003 -0.002 0.000 -0.001 -0.001 90.6484950156 -0.7394020346 0.6241630333
2129.00000 375182.70 -0.003 -0.003 -0.002 -0.002 -0.002 0.001 90.6491768354 -0.7378378598 0.6265007011
2129.00000 375182.80 -0.003 -0.003 -0.002 0.001 -0.001 -0.001 90.6488445199 -0.7378607781 0.6274288927
2129.00000 375182.90 -0.003 -0.003 -0.002 0.002 0.001 -0.001 90.6485809593 -0.7386342712 0.6259220137
2129.00000 375183.00 -0.003 -0.003 -0.002 -0.001 -0.000 0.000 90.6491825650 -0.7384967613 0.6251198728
2129.00000 375183.10 -0.003 -0.003 -0.002 -0.001 -0.002 -0.001 90.6489648410 -0.7388749134 0.6264376757
2129.00000 375183.20 -0.003 -0.003 -0.002 0.002 -0.000 -0.002 90.6489247340 -0.7369956119 0.6277726674
2129.00000 375183.30 -0.003 -0.003 -0.002 0.001 0.004 -0.000 90.6482371846 -0.7384738430 0.6256469940
2129.00000 375183.40 -0.003 -0.003 -0.002 -0.000 0.002 -0.000 90.6479564353 -0.7385827050 0.6147493367
2129.00000 375183.50 -0.003 -0.003 -0.002 -0.001 -0.002 -0.001 90.6506493369 -0.7368523724 0.6105495561
2129.00000 375183.60 -0.003 -0.003 -0.002 0.002 -0.008 -0.002 90.6526546892 -0.7373737640 0.6266725884
2129.00000 375183.70 -0.003 -0.003 -0.002 0.001 0.003 -0.001 90.6465354999 -0.7402041755 0.6308208029
2129.00000 375183.80 -0.003 -0.003 -0.002 -0.003 0.005 -0.001 90.6491882945 -0.7376717021 0.6226389655
2129.00000 375183.90 -0.003 -0.003 -0.002 0.000 -0.001 -0.002 90.6516119060 -0.7334661919 0.6163765368
2129.00000 375184.00 -0.003 -0.003 -0.002 0.004 -0.007 0.000 90.6485465818 -0.7382446599 0.6281565491
2129.00000 375184.10 -0.003 -0.003 -0.002 0.001 -0.001 0.001 90.6481283226 -0.7436075448 0.6340408257
2129.00000 375184.20 -0.003 -0.003 -0.002 -0.001 0.003 0.001 90.6475782831 -0.7447305421 0.6336282961
2129.00000 375184.30 -0.003 -0.003 -0.002 -0.001 0.005 -0.002 90.6461344295 -0.7466556803 0.6260881715
2129.00000 375184.40 -0.003 -0.003 -0.002 -0.002 0.003 -0.003 90.6490393255 -0.7414073869 0.6177630947
2129.00000 375184.50 -0.003 -0.003 -0.002 -0.004 -0.000 -0.001 90.6529984639 -0.7336609975 0.6158666044
2129.00000 375184.60 -0.003 -0.003 -0.002 0.003 -0.003 0.001 90.6499044918 -0.7326984284 0.6188574441
2129.00000 375184.70 -0.003 -0.003 -0.002 0.004 -0.001 -0.001 90.6480423789 -0.7416251109 0.6251370615
2129.00000 375184.80 -0.003 -0.003 -0.002 -0.002 0.002 -0.001 90.6494346664 -0.7423986039 0.6238192586
2129.00000 375184.90 -0.003 -0.003 -0.002 -0.003 0.000 -0.000 90.6491596466 -0.7386571895 0.6230457656
2129.00000 375185.00 -0.003 -0.003 -0.002 0.001 -0.001 -0.001 90.6496122833 -0.7364398428 0.6264835124
2129.00000 375185.10 -0.003 -0.003 -0.002 0.002 0.005 0.000 90.6491825650 -0.7388863726 0.6210232246
2129.00000 375185.20 -0.003 -0.003 -0.002 -0.001 0.001 0.001 90.6489591114 -0.7414016573 0.6185480469
2129.00000 375185.30 -0.003 -0.003 -0.002 -0.000 -0.002 -0.003 90.6490507847 -0.7405364911 0.6166343679
2129.00000 375185.40 -0.003 -0.003 -0.002 0.001 -0.004 -0.002 90.6501107566 -0.7382618486 0.6257673151
2129.00000 375185.50 -0.003 -0.003 -0.002 -0.001 0.003 0.001 90.6492455903 -0.7396197586 0.6260709827
2129.00000 375185.60 -0.003 -0.003 -0.002 -0.001 0.004 -0.002 90.6481856184 -0.7402500122 0.6206221541
2129.00000 375185.70 -0.003 -0.003 -0.002 0.001 0.001 -0.002 90.6494403960 -0.7382790373 0.6147149592
2129.00000 375185.80 -0.003 -0.003 -0.002 0.001 -0.004 0.001 90.6503399397 -0.7401125023 0.6221347627
2129.00000 375185.90 -0.003 -0.003 -0.002 -0.001 -0.003 -0.001 90.6481512409 -0.7427080011 0.6293368422
2129.00000 375186.00 -0.003 -0.003 -0.002 0.000 0.003 -0.002 90.6479507057 -0.7388118881 0.6298983408
2129.00000 375186.10 -0.003 -0.003 -0.002 0.001 0.003 0.001 90.6490966213 -0.7405422206 0.6227363684
2129.00000 375186.20 -0.003 -0.003 -0.002 -0.000 -0.005 -0.002 90.6491711058 -0.7436247336 0.6249995517
2129.00000 375186.30 -0.003 -0.003 -0.002 -0.001 -0.001 -0.003 90.6498242777 -0.7400953135 0.6324594622
2129.00000 375186.40 -0.003 -0.003 -0.002 -0.000 0.004 0.001 90.6500706495 -0.7380212063 0.6299269887
2129.00000 375186.50 -0.003 -0.003 -0.002 0.002 0.002 -0.000 90.6489190044 -0.7408688066 0.6208857147
2129.00000 375186.60 -0.003 -0.003 -0.002 0.001 -0.002 -0.001 90.6499159509 -0.7419115898 0.6209143626
2129.00000 375186.70 -0.003 -0.003 -0.002 -0.002 -0.002 0.000 90.6503685876 -0.7403302262 0.6267585321
2129.00000 375186.80 -0.003 -0.003 -0.002 -0.000 0.001 -0.001 90.6486955508 -0.7386972965 0.6286091858
2129.00000 375186.90 -0.003 -0.003 -0.002 0.004 0.002 0.001 90.6501565932 -0.7382790373 0.6246729657
2129.00000 375187.00 -0.003 -0.003 -0.002 0.000 0.000 0.002 90.6507467397 -0.7436820293 0.6221462218
2129.00000 375187.10 -0.003 -0.003 -0.002 -0.004 -0.002 -0.003 90.6477272522 -0.7420662884 0.6239911459
2129.00000 375187.20 -0.003 -0.003 -0.002 0.001 0.000 -0.000 90.6502138890 -0.7366919442 0.6286091858
2129.00000 375187.30 -0.003 -0.003 -0.002 0.002 0.004 0.001 90.6503571284 -0.7407656742 0.6230457656
2129.00000 375187.40 -0.003 -0.003 -0.002 0.000 0.000 -0.000 90.6476584972 -0.7427423786 0.6195965597
2129.00000 375187.50 -0.003 -0.003 -0.002 -0.000 -0.001 -0.002 90.6496523904 -0.7408286995 0.6194361315
2129.00000 375187.60 -0.003 -0.003 -0.002 0.000 -0.002 0.001 90.6516119060 -0.7395510036 0.6255495911
2129.00000 375187.70 -0.003 -0.003 -0.002 0.000 0.001 0.001 90.6487929537 -0.7422553644 0.6237619628
2129.00000 375187.80 -0.003 -0.003 -0.002 -0.001 0.001 -0.002 90.6487528466 -0.7405479502 0.6234697543
2129.00000 375187.90 -0.003 -0.003 -0.002 0.000 0.001 -0.000 90.6507066327 -0.7379066148 0.6202382724
2129.00000 375188.00 -0.003 -0.003 -0.002 0.000 -0.001 0.001 90.6502425369 -0.7402213643 0.6205247513
2129.00000 375188.10 -0.003 -0.003 -0.002 0.000 -0.000 -0.001 90.6499388693 -0.7416652179 0.6217795289
2129.00000 375188.20 -0.003 -0.003 -0.002 -0.001 0.000 -0.000 90.6504373425 -0.7396197586 0.6228910670
2129.00000 375188.30 -0.003 -0.003 -0.002 -0.001 0.001 0.000 90.6497669819 -0.7391212853 0.6218024472
2129.00000 375188.40 -0.003 -0.003 -0.002 0.001 -0.001 -0.001 90.6499732467 -0.7406167051 0.6215503457
2129.00000 375188.50 -0.003 -0.003 -0.002 0.001 -0.001 -0.000 90.6501967003 -0.7404104403 0.6228967966
2129.00000 375188.60 -0.003 -0.003 -0.002 -0.001 0.001 0.001 90.6501394045 -0.7401296910 0.6235671572
2129.00000 375188.70 -0.003 -0.003 -0.002 0.000 0.000 0.000 90.6503112918 -0.7398947783 0.6216420190
2129.00000 375188.80 -0.003 -0.003 -0.002 0.001 -0.000 0.000 90.6503399397 -0.7393676571 0.6219113091
2129.00000 375188.90 -0.003 -0.003 -0.002 -0.000 -0.000 0.001 90.6499904355 -0.7407427559 0.6218654725
2129.00000 375189.00 -0.003 -0.003 -0.002 -0.001 -0.001 -0.001 90.6503685876 -0.7403646037 0.6238077994
2129.00000 375189.10 -0.003 -0.003 -0.002 0.000 0.001 0.001 90.6500362721 -0.7381873641 0.6228395008
2129.00000 375189.20 -0.003 -0.003 -0.002 0.000 0.001 0.001 90.6498013594 -0.7397859163 0.6219399570
2129.00000 375189.30 -0.003 -0.003 -0.002 0.000 -0.002 -0.001 90.6500992974 -0.7401411502 0.6226045881
2129.00000 375189.40 -0.003 -0.003 -0.002 0.000 0.000 0.000 90.6501623228 -0.7393733867 0.6251886277
2129.00000 375189.50 -0.003 -0.003 -0.002 -0.001 0.001 0.000 90.6502024298 -0.7407714037 0.6239682276
2129.00000 375189.60 -0.003 -0.003 -0.002 -0.000 0.001 -0.001 90.6501795115 -0.7399119671 0.6220488190
2129.00000 375189.70 -0.003 -0.003 -0.002 0.001 -0.000 0.000 90.6497096861 -0.7392072290 0.6224957261
2129.00000 375189.80 -0.003 -0.003 -0.002 -0.000 -0.001 0.000 90.6502310777 -0.7404218995 0.6235442389
2129.00000 375189.90 -0.003 -0.003 -0.002 0.000 0.000 -0.001 90.6504029651 -0.7403015784 0.6247130728
2129.00000 375190.00 -0.003 -0.003 -0.002 0.000 0.001 0.001 90.6495263396 -0.7391843107 0.6232405712
2129.00000 375190.10 -0.003 -0.003 -0.002 0.000 0.000 0.000 90.6498815735 -0.7410120460 0.6219628753
2129.00000 375190.20 -0.003 -0.003 -0.002 0.000 -0.001 -0.001 90.6507352806 -0.7398088347 0.6227879346
2129.00000 375190.30 -0.003 -0.003 -0.002 0.000 0.001 0.001 90.6498128185 -0.7392186881 0.6236072642
2129.00000 375190.40 -0.003 -0.003 -0.002 0.000 0.000 0.000 90.6496237425 -0.7410406939 0.6228280416
2129.00000 375190.50 -0.003 -0.003 -0.002 0.000 0.000 -0.001 90.6504430721 -0.7404161699 0.6221748697
2129.00000 375190.60 -0.003 -0.003 -0.002 -0.001 0.000 -0.000 90.6495206101 -0.7395911107 0.6225644810
2129.00000 375190.70 -0.003 -0.003 -0.002 -0.000 -0.001 -0.001 90.6500420017 -0.7407370263 0.6222493542
2129.00000 375190.80 -0.003 -0.003 -0.002 0.000 0.000 -0.001 90.6505519341 -0.7399348854 0.6238135290
2129.00000 375190.90 -0.003 -0.003 -0.002 0.000 0.001 0.001 90.6494575847 -0.7401010431 0.6230056585
2129.00000 375191.00 -0.003 -0.003 -0.002 -0.001 0.000 -0.000 90.6502654552 -0.7406854601 0.6220087120
2129.00000 375191.10 -0.003 -0.003 -0.002 0.001 -0.001 -0.001 90.6505805820 -0.7391900402 0.6231718163
2129.00000 375191.20 -0.003 -0.003 -0.002 0.000 0.001 0.001 90.6497899002 -0.7400953135 0.6238135290
2129.00000 375191.30 -0.003 -0.003 -0.002 0.000 -0.000 -0.001 90.6501967003 -0.7406797305 0.6225873993
2129.00000 375191.40 -0.003 -0.003 -0.002 0.000 0.000 -0.001 90.6503055622 -0.7384566543 0.6234239177
2129.00000 375191.50 -0.003 -0.003 -0.002 0.001 0.001 0.001 90.6502883735 -0.7396598656 0.6226332360
2129.00000 375191.60 -0.003 -0.003 -0.002 0.000 -0.001 -0.001 90.6503800468 -0.7414818714 0.6218998500
2129.00000 375191.70 -0.003 -0.003 -0.002 -0.001 -0.001 -0.001 90.6493945593 -0.7391212853 0.6242661657
2129.00000 375191.80 -0.003 -0.003 -0.002 -0.001 0.001 0.000 90.6495607171 -0.7386514599 0.6243864868
2129.00000 375191.90 -0.003 -0.003 -0.002 0.001 0.000 -0.000 90.6503685876 -0.7392989022 0.6236760192
2129.00000 375192.00 -0.003 -0.003 -0.002 0.000 0.001 -0.000 90.6499732467 -0.7401697981 0.6223410275
2129.00000 375192.10 -0.003 -0.003 -0.002 -0.002 -0.000 0.000 90.6499274101 -0.7400322882 0.6218425542
2129.00000 375192.20 -0.003 -0.003 -0.002 0.000 -0.002 -0.001 90.6499675171 -0.7394478712 0.6231890050
2129.00000 375192.30 -0.003 -0.003 -0.002 0.000 0.001 -0.000 90.6497841706 -0.7381988232 0.6251313320
2129.00000 375192.40 -0.003 -0.003 -0.002 -0.001 0.001 0.000 90.6504602608 -0.7400322882 0.6230916022
2129.00000 375192.50 -0.003 -0.003 -0.002 -0.000 -0.000 -0.002 90.6504659904 -0.7393963050 0.6210633316
2129.00000 375192.60 -0.003 -0.003 -0.002 0.001 -0.001 -0.000 90.6496352016 -0.7387431332 0.6235327797
2129.00000 375192.70 -0.003 -0.003 -0.002 -0.000 -0.000 0.001 90.6500591904 -0.7408344291 0.6255896982
2129.00000 375192.80 -0.003 -0.003 -0.002 -0.000 0.001 -0.001 90.6501737819 -0.7404218995 0.6260537940
2129.00000 375192.90 -0.003 -0.003 -0.002 0.000 0.003 -0.002 90.6501852411 -0.7389322092 0.6216305598
2129.00000 375193.00 -0.003 -0.003 -0.002 -0.001 0.000 -0.000 90.6506951735 -0.7394364121 0.6184792920
2129.00000 375193.10 -0.003 -0.003 -0.002 0.000 -0.003 -0.000 90.6499675171 -0.7408688066 0.6222321655
2129.00000 375193.20 -0.003 -0.003 -0.002 0.001 0.002 -0.001 90.6515087736 -0.7401067727 0.6241630333
2129.00000 375193.30 -0.003 -0.003 -0.002 -0.002 0.003 -0.002 90.6510045707 -0.7390296120 0.6194304019
2129.00000 375193.40 -0.003 -0.003 -0.002 0.002 0.001 -0.001 90.6508957088 -0.7381357979 0.6145144240
2129.00000 375193.50 -0.003 -0.003 -0.002 0.002 -0.002 -0.000 90.6515775285 -0.7392301473 0.6162619453
2129.00000 375193.60 -0.003 -0.003 -0.002 -0.001 -0.001 -0.000 90.6502310777 -0.7413443615 0.6220029824
2129.00000 375193.70 -0.003 -0.003 -0.002 -0.002 0.002 -0.002 90.6512165651 -0.7388004289 0.6213727288
2129.00000 375193.80 -0.003 -0.003 -0.002 0.001 0.003 -0.001 90.6509472750 -0.7369039386 0.6170927341
2129.00000 375193.90 -0.003 -0.003 -0.002 0.000 -0.002 0.000 90.6491252692 -0.7402786600 0.6180667623
2129.00000 375194.00 -0.003 -0.003 -0.002 -0.000 -0.002 -0.001 90.6505805820 -0.7413672799 0.6225358331
2129.00000 375194.10 -0.003 -0.003 -0.002 -0.001 0.002 -0.002 90.6511077032 -0.7381644458 0.6240713600
2129.00000 375194.20 -0.003 -0.003 -0.002 -0.000 0.002 -0.000 90.6491768354 -0.7387202148 0.6199460639
2129.00000 375194.30 -0.003 -0.003 -0.002 0.001 -0.001 -0.001 90.6499732467 -0.7406109756 0.6177057989
2129.00000 375194.40 -0.003 -0.003 -0.002 0.000 -0.001 -0.001 90.6505691228 -0.7397171614 0.6212810556
2129.00000 375194.50 -0.003 -0.003 -0.002 -0.002 0.000 -0.001 90.6495549875 -0.7397228910 0.6226905317
2129.00000 375194.60 -0.003 -0.003 -0.002 0.000 0.000 -0.001 90.6499216805 -0.7395624628 0.6211951119
2129.00000 375194.70 -0.003 -0.003 -0.002 0.000 0.001 -0.000 90.6499216805 -0.7393218205 0.6192126779
2129.00000 375194.80 -0.003 -0.003 -0.002 -0.001 -0.000 0.000 90.6499961650 -0.7402958488 0.6193731061
2129.00000 375194.90 -0.003 -0.003 -0.002 0.000 -0.001 -0.002 90.6501050270 -0.7401640685 0.6212294894
2129.00000 375195.00 -0.003 -0.003 -0.002 0.000 0.001 -0.000 90.6503112918 -0.7392473360 0.6219686049
2129.00000 375195.10 -0.003 -0.003 -0.002 -0.001 0.001 0.000 90.6497383340 -0.7402557417 0.6202726499
2129.00000 375195.20 -0.003 -0.003 -0.002 -0.000 -0.000 -0.002 90.6495664467 -0.7407714037 0.6202554611
2129.00000 375195.30 -0.003 -0.003 -0.002 0.000 0.000 -0.001 90.6505290158 -0.7390410712 0.6214300246
2129.00000 375195.40 -0.003 -0.003 -0.002 0.000 0.001 0.001 90.6499560580 -0.7397228910 0.6206851795
2129.00000 375195.50 -0.003 -0.003 -0.002 0.000 0.000 -0.000 90.6492284016 -0.7413157137 0.6204330780
2129.00000 375195.60 -0.003 -0.003 -0.002 0.000 0.000 -0.001 90.6503112918 -0.7395510036 0.6204273485
2129.00000 375195.70 -0.003 -0.003 -0.002 0.000 0.000 0.000 90.6503055622 -0.7399005079 0.6205877766
2129.00000 375195.80 -0.003 -0.003 -0.002 -0.001 0.000 -0.000 90.6495091509 -0.7410636122 0.6196538554
2129.00000 375195.90 -0.003 -0.003 -0.002 0.000 -0.000 -0.001 90.6502711848 -0.7398374825 0.6210805203
2129.00000 375196.00 -0.003 -0.003 -0.002 0.000 0.001 0.001 90.6502482665 -0.7399463445 0.6205877766
2129.00000 375196.10 -0.003 -0.003 -0.002 0.000 -0.001 -0.001 90.6497841706 -0.7408516178 0.6207711231
2129.00000 375196.20 -0.003 -0.003 -0.002 0.000 0.000 -0.001 90.6500763791 -0.7394765191 0.6211779232
2129.00000 375196.30 -0.003 -0.003 -0.002 0.000 0.001 0.001 90.6501737819 -0.7404791953 0.6208799851
2129.00000 375196.40 -0.003 -0.003 -0.002 -0.000 -0.002 -0.001 90.6493945593 -0.7403989812 0.6209544696
2129.00000 375196.50 -0.003 -0.003 -0.002 0.000 0.001 -0.000 90.6500763791 -0.7391442036 0.6216076415
2129.00000 375196.60 -0.003 -0.003 -0.002 0.000 0.001 0.001 90.6506607961 -0.7395853811 0.6194304019
2129.00000 375196.70 -0.003 -0.003 -0.002 0.000 -0.000 -0.001 90.6499732467 -0.7408917249 0.6195220751
2129.00000 375196.80 -0.003 -0.003 -0.002 0.000 -0.001 -0.001 90.6504144242 -0.7390582599 0.6215446162
2129.00000 375196.90 -0.003 -0.003 -0.002 0.000 0.000 0.000 90.6505977707 -0.7398317530 0.6223123796
2129.00000 375197.00 -0.003 -0.003 -0.002 0.000 -0.000 -0.001 90.6500420017 -0.7400494769 0.6216821260
2129.00000 375197.10 -0.003 -0.003 -0.002 0.000 0.001 -0.000 90.6503456693 -0.7392014994 0.6221691402
2129.00000 375197.20 -0.003 -0.003 -0.002 -0.001 0.000 -0.000 90.6503915059 -0.7400895840 0.6204273485
2129.00000 375197.30 -0.003 -0.003 -0.002 -0.000 -0.000 -0.002 90.6504144242 -0.7405307615 0.6207424752
2129.00000 375197.40 -0.003 -0.003 -0.002 0.000 0.001 -0.000 90.6506779848 -0.7390926374 0.6209086330
2129.00000 375197.50 -0.003 -0.003 -0.002 0.000 0.000 0.000 90.6501394045 -0.7401182319 0.6199575231
2129.00000 375197.60 -0.003 -0.003 -0.002 -0.001 -0.001 -0.001 90.6503800468 -0.7409203728 0.6206909090
2129.00000 375197.70 -0.003 -0.003 -0.002 0.000 0.000 -0.001 90.6507295510 -0.7392072290 0.6201007625
2129.00000 375197.80 -0.003 -0.003 -0.002 0.000 0.001 -0.000 90.6505805820 -0.7399635333 0.6196366667
2129.00000 375197.90 -0.003 -0.003 -0.002 0.000 -0.001 -0.001 90.6505118270 -0.7412985249 0.6196194780
2129.00000 375198.00 -0.003 -0.003 -0.002 0.000 -0.000 -0.001 90.6507524693 -0.7402786600 0.6210003063
2129.00000 375198.10 -0.003 -0.003 -0.002 -0.001 0.001 0.000 90.6505748524 -0.7401526093 0.6202669203
2129.00000 375198.20 -0.003 -0.003 -0.002 0.000 -0.001 -0.001 90.6503972355 -0.7413787390 0.6195449935
2129.00000 375198.30 -0.003 -0.003 -0.002 0.000 0.000 -0.001 90.6505805820 -0.7400609361 0.6193215399
2129.00000 375198.40 -0.003 -0.003 -0.002 -0.001 0.000 -0.000 90.6507123623 -0.7401526093 0.6207883119
2129.00000 375198.50 -0.003 -0.003 -0.002 0.000 -0.001 -0.001 90.6509587341 -0.7406797305 0.6195106160
2129.00000 375198.60 -0.003 -0.003 -0.002 0.001 0.001 -0.002 90.6506264186 -0.7398260234 0.6200663850
2129.00000 375198.70 -0.003 -0.003 -0.002 -0.001 0.001 0.000 90.6507868468 -0.7405250319 0.6192126779
2129.00000 375198.80 -0.003 -0.003 -0.002 0.000 -0.001 -0.001 90.6513139680 -0.7406797305 0.6189090103
2129.00000 375198.90 -0.003 -0.003 -0.002 0.000 0.000 -0.001 90.6509128975 -0.7394650600 0.6200950329
2129.00000 375199.00 -0.003 -0.003 -0.002 0.000 0.000 0.000 90.6502539960 -0.7412354996 0.6210117654
2129.00000 375199.10 -0.003 -0.003 -0.002 -0.000 0.001 -0.001 90.6508670609 -0.7405880573 0.6194647794
2129.00000 375199.20 -0.003 -0.003 -0.002 0.001 0.002 -0.001 90.6519785990 -0.7390468008 0.6187600413
2129.00000 375199.30 -0.003 -0.003 -0.002 -0.000 -0.000 0.001 90.6506894440 -0.7404963840 0.6183303229
2129.00000 375199.40 -0.003 -0.003 -0.002 -0.000 -0.002 -0.000 90.6502711848 -0.7412870658 0.6212065711
2129.00000 375199.50 -0.003 -0.003 -0.002 0.000 0.001 -0.000 90.6509988412 -0.7385827050 0.6233207853
2129.00000 375199.60 -0.003 -0.003 -0.002 0.000 0.002 0.000 90.6512795905 -0.7391957698 0.6195449935
2129.00000 375199.70 -0.003 -0.003 -0.002 0.000 0.000 0.000 90.6505462045 -0.7417511616 0.6172588919
2129.00000 375199.80 -0.003 -0.003 -0.002 -0.001 -0.002 -0.001 90.6505462045 -0.7391212853 0.6189777652
2129.00000 375199.90 -0.003 -0.003 -0.002 0.000 -0.000 0.000 90.6511821877 -0.7394536008 0.6224670782
2129.00000 375200.00 -0.003 -0.003 -0.002 0.000 0.000 -0.001 90.6511764581 -0.7408115108 0.6206049654
2129.00000 375200.10 -0.003 -0.003 -0.002 0.001 0.001 -0.002 90.6509988412 -0.7401354206 0.6200377372
2129.00000 375200.20 -0.003 -0.003 -0.002 -0.000 -0.000 0.001 90.6507753876 -0.7408286995 0.6191954892
2129.00000 375200.30 -0.003 -0.003 -0.002 -0.001 -0.001 -0.001 90.6510733257 -0.7410063164 0.6191439230
2129.00000 375200.40 -0.003 -0.003 -0.002 0.000 -0.000 -0.001 90.6510905144 -0.7391843107 0.6204388076
2129.00000 375200.50 -0.003 -0.003 -0.002 0.000 0.001 0.001 90.6508498721 -0.7406167051 0.6200377372
2129.00000 375200.60 -0.003 -0.003 -0.002 -0.001 -0.001 -0.001 90.6510675961 -0.7414245756 0.6199231456
2129.00000 375200.70 -0.003 -0.003 -0.002 0.000 -0.000 -0.001 90.6523452920 -0.7396942431 0.6198429315
2129.00000 375200.80 -0.003 -0.003 -0.002 -0.000 0.000 0.001 90.6533995343 -0.7400093699 0.6209601992
2129.00000 375200.90 -0.003 -0.003 -0.002 0.001 -0.001 -0.000 90.6525400976 -0.7413787390 0.6188001483
2129.00000 375201.00 -0.003 -0.003 -0.002 0.001 0.001 -0.002 90.6517093088 -0.7401697981 0.6198257428
2129.00000 375201.10 -0.003 -0.003 -0.002 -0.001 0.001 0.000 90.6530099230 -0.7405937868 0.6181641652
2129.00000 375201.20 -0.003 -0.003 -0.002 -0.001 -0.002 -0.001 90.6536287175 -0.7402099051 0.6191611117
2129.00000 375201.30 -0.003 -0.003 -0.002 0.000 0.000 -0.001 90.6535026667 -0.7383019556 0.6211091682
2129.00000 375201.40 -0.003 -0.003 -0.002 0.001 0.001 0.001 90.6554965599 -0.7404047108 0.6195278047
2129.00000 375201.50 -0.003 -0.003 -0.002 -0.000 -0.000 -0.002 90.6588770109 -0.7414761418 0.6191668413
2129.00000 375201.60 -0.003 -0.003 -0.002 -0.002 -0.002 -0.001 90.6640164423 -0.7387030261 0.6238135290
2129.00000 375201.70 -0.003 -0.003 -0.002 -0.002 -0.002 -0.001 90.6686631300 -0.7368065358 0.6300072028
2129.00000 375201.80 -0.003 -0.003 -0.002 0.001 0.004 0.002 90.6688178286 -0.7375914880 0.6274632702
2129.00000 375201.90 -0.003 -0.003 -0.002 0.000 0.002 0.001 90.6667379918 -0.7404791953 0.6219170387
2129.00000 375202.00 -0.003 -0.003 -0.002 -0.002 -0.005 -0.001 90.6690183638 -0.7416824066 0.6277211012
2129.00000 375202.10 -0.003 -0.003 -0.002 -0.001 -0.002 0.001 90.6695626737 -0.7390811783 0.6336684031
2129.00000 375202.20 -0.003 -0.003 -0.002 0.001 0.002 0.001 90.6653170565 -0.7416766771 0.6318406677
2129.00000 375202.30 -0.003 -0.003 -0.002 0.001 0.000 -0.000 90.6595645602 -0.7453779844 0.6251828982
2129.00000 375202.40 -0.003 -0.003 -0.002 -0.001 -0.003 0.001 90.6566367459 -0.7445013590 0.6265293490
2129.00000 375202.50 -0.003 -0.003 -0.002 0.000 -0.004 0.000 90.6524942610 -0.7436075448 0.6312848987
2129.00000 375202.60 -0.003 -0.003 -0.002 0.000 -0.002 -0.001 90.6462833985 -0.7443523900 0.6347226454
2129.00000 375202.70 -0.003 -0.003 -0.002 0.000 0.003 0.002 90.6491539171 -0.7435158716 0.6305973493
2129.00000 375202.80 -0.003 -0.003 -0.002 -0.001 -0.002 0.001 90.6506665256 -0.7443753083 0.6269647969
2129.00000 375202.90 -0.003 -0.003 -0.002 -0.001 -0.002 -0.001 90.6452578041 -0.7437049477 0.6283398956
2129.00000 375203.00 -0.003 -0.003 -0.002 0.000 0.000 0.002 90.6463063168 -0.7405250319 0.6289013942
2129.00000 375203.10 -0.003 -0.003 -0.002 0.000 -0.000 0.002 90.6469766774 -0.7420433701 0.6273715969
2129.00000 375203.20 -0.003 -0.003 -0.002 -0.000 -0.002 -0.000 90.6429487841 -0.7430345870 0.6282195745
2129.00000 375203.30 -0.003 -0.003 -0.002 0.000 -0.000 0.000 90.6431149419 -0.7415162489 0.6301447127
2129.00000 375203.40 -0.003 -0.003 -0.002 -0.001 0.001 0.001 90.6451432125 -0.7414646827 0.6291363069
2129.00000 375203.50 -0.003 -0.003 -0.002 -0.000 0.002 -0.001 90.6437509251 -0.7417798095 0.6237619628
2129.00000 375203.60 -0.003 -0.003 -0.002 0.001 0.000 -0.000 90.6438082208 -0.7415735447 0.6220717373
2129.00000 375203.70 -0.003 -0.003 -0.002 0.000 -0.001 0.001 90.6452807224 -0.7422267165 0.6231775459
2129.00000 375203.80 -0.003 -0.003 -0.002 -0.000 -0.001 -0.001 90.6448395449 -0.7443867674 0.6254235404
2129.00000 375203.90 -0.003 -0.003 -0.002 -0.001 0.002 -0.002 90.6446504688 -0.7432924180 0.6236473713
2129.00000 375204.00 -0.003 -0.003 -0.002 -0.000 0.002 -0.000 90.6459911900 -0.7416079221 0.6202382724
2129.00000 375204.10 -0.003 -0.003 -0.002 -0.000 -0.000 0.001 90.6461802661 -0.7438252688 0.6183074046
2129.00000 375204.20 -0.003 -0.003 -0.002 0.000 -0.003 -0.002 90.6461172408 -0.7446044914 0.6191210047
2129.00000 375204.30 -0.003 -0.003 -0.002 0.001 -0.000 0.000 90.6476699564 -0.7438653758 0.6237447741
2129.00000 375204.40 -0.003 -0.003 -0.002 -0.000 0.002 -0.000 90.6481455114 -0.7439169420 0.6184277258
2129.00000 375204.50 -0.003 -0.003 -0.002 -0.001 0.001 0.000 90.6474579620 -0.7449425365 0.6162046495
2129.00000 375204.60 -0.003 -0.003 -0.002 -0.000 -0.002 -0.000 90.6474980690 -0.7454753872 0.6157692016
2129.00000 375204.70 -0.003 -0.003 -0.002 0.000 -0.001 -0.002 90.6488044128 -0.7440544519 0.6196423963
2129.00000 375204.80 -0.003 -0.003 -0.002 -0.001 0.001 0.001 90.6476928747 -0.7443180125 0.6197397991
2129.00000 375204.90 -0.003 -0.003 -0.002 -0.000 -0.000 0.001 90.6471485648 -0.7444727111 0.6175109933
2129.00000 375205.00 -0.003 -0.003 -0.002 0.000 -0.003 -0.000 90.6490794326 -0.7457274887 0.6198715794
2129.00000 375205.10 -0.003 -0.003 -0.002 -0.001 -0.000 0.000 90.6476355789 -0.7438023505 0.6198486611
2129.00000 375205.20 -0.003 -0.003 -0.002 -0.001 -0.000 0.002 90.6473491000 -0.7434814941 0.6207367457
2129.00000 375205.30 -0.003 -0.003 -0.002 0.000 -0.001 0.001 90.6485064748 -0.7453264182 0.6175682891
2129.00000 375205.40 -0.003 -0.003 -0.002 -0.000 -0.001 0.000 90.6483173987 -0.7441232068 0.6187027455
2129.00000 375205.50 -0.003 -0.003 -0.002 -0.002 0.000 0.002 90.6481627001 -0.7427996743 0.6186569089
2129.00000 375205.60 -0.003 -0.003 -0.002 -0.001 -0.003 0.001 90.6484319902 -0.7438023505 0.6204216189
2129.00000 375205.70 -0.003 -0.003 -0.002 -0.000 -0.001 0.000 90.6478303846 -0.7424558997 0.6214071063
2129.00000 375205.80 -0.003 -0.003 -0.002 -0.001 0.001 0.001 90.6480423789 -0.7407427559 0.6213612697
2129.00000 375205.90 -0.003 -0.003 -0.002 0.000 -0.001 0.001 90.6485236635 -0.7425131954 0.6191210047
2129.00000 375206.00 -0.003 -0.003 -0.002 0.001 -0.001 -0.000 90.6487643058 -0.7441346660 0.6196022892
2129.00000 375206.10 -0.003 -0.003 -0.002 -0.001 0.001 0.001 90.6492685086 -0.7433611730 0.6197799061
2129.00000 375206.20 -0.003 -0.003 -0.002 -0.002 -0.002 0.001 90.6488044128 -0.7442263393 0.6215446162
2129.00000 375206.30 -0.003 -0.003 -0.002 -0.000 -0.003 -0.001 90.6475725536 -0.7436877589 0.6246844249
2129.00000 375206.40 -0.003 -0.003 -0.002 -0.001 -0.000 0.000 90.6486554438 -0.7421522320 0.6282253040
2129.00000 375206.50 -0.003 -0.003 -0.002 -0.002 0.001 0.001 90.6487356579 -0.7421407729 0.6284372984
2129.00000 375206.60 -0.003 -0.003 -0.002 0.001 -0.000 0.000 90.6476928747 -0.7423986039 0.6273887857
2129.00000 375206.70 -0.003 -0.003 -0.002 0.000 0.000 0.000 90.6484720973 -0.7426449757 0.6273715969
2129.00000 375206.80 -0.003 -0.003 -0.002 -0.002 -0.000 0.000 90.6477157930 -0.7421235841 0.6279674730
2129.00000 375206.90 -0.003 -0.003 -0.002 -0.002 0.001 -0.000 90.6480366494 -0.7403875220 0.6285289717
2129.00000 375207.00 -0.003 -0.003 -0.002 0.002 0.002 -0.001 90.6492742382 -0.7405135727 0.6248906897
2129.00000 375207.10 -0.003 -0.003 -0.002 -0.000 0.000 0.000 90.6479392465 -0.7429142659 0.6248677714
2129.00000 375207.20 -0.003 -0.003 -0.002 -0.003 -0.001 0.000 90.6475782831 -0.7420777475 0.6266840476
2129.00000 375207.30 -0.003 -0.003 -0.002 -0.000 -0.000 -0.002 90.6489648410 -0.7410636122 0.6273372195
