     Week         GPSTime       E        N          U       VX       VY       VZ          Heading               Pitch                  Roll
   (weeks)              (sec)       (m)    (m)       (m)   (m/s)  (m/s)   (m/s)           (deg)                 (deg)                 (deg) 
2233.00000 22451.000 0.096 -0.579 0.003 0.920 -5.776 0.022 2.20027E-05 1.70745E-05 7.68856E-06
2233.00000 22451.100 0.188 -1.155 0.006 0.871 -5.750 0.037 2.17536E-05 1.69412E-05 7.61625E-06
2233.00000 22451.200 0.276 -1.726 0.010 0.866 -5.694 0.026 2.15050E-05 1.68075E-05 7.54392E-06
2233.00000 22451.300 0.364 -2.294 0.013 0.847 -5.650 0.025 2.12570E-05 1.66732E-05 7.47158E-06
2233.00000 22451.400 0.449 -2.856 0.015 0.809 -5.606 0.034 2.10093E-05 1.65386E-05 7.39921E-06
2233.00000 22451.500 0.529 -3.415 0.019 0.780 -5.568 0.046 2.07622E-05 1.64034E-05 7.32683E-06
2233.00000 22451.600 0.606 -3.971 0.022 0.746 -5.542 0.042 2.05156E-05 1.62678E-05 7.25442E-06
2233.00000 22451.700 0.681 -4.523 0.027 0.734 -5.495 0.038 2.02694E-05 1.61317E-05 7.18200E-06
2233.00000 22451.800 0.753 -5.071 0.031 0.706 -5.452 0.050 2.00238E-05 1.59952E-05 7.10955E-06
2233.00000 22451.900 0.823 -5.614 0.035 0.666 -5.429 0.043 1.97786E-05 1.58582E-05 7.03709E-06
2233.00000 22452.000 0.891 -6.154 0.039 0.656 -5.377 0.051 1.95339E-05 1.57207E-05 6.96461E-06
2233.00000 22452.100 0.957 -6.689 0.044 0.638 -5.326 0.043 1.93325E-05 1.55927E-05 6.90107E-06
2233.00000 22452.200 1.021 -7.220 0.048 0.617 -5.291 0.033 1.91313E-05 1.54644E-05 6.83763E-06
2233.00000 22452.300 1.083 -7.746 0.053 0.580 -5.253 0.038 1.89302E-05 1.53360E-05 6.77430E-06
2233.00000 22452.400 1.140 -8.268 0.058 0.565 -5.195 0.034 1.87291E-05 1.52074E-05 6.71107E-06
2233.00000 22452.500 1.196 -8.786 0.062 0.539 -5.161 0.039 1.85281E-05 1.50786E-05 6.64795E-06
2233.00000 22452.600 1.249 -9.300 0.067 0.516 -5.115 0.033 1.83273E-05 1.49496E-05 6.58492E-06
2233.00000 22452.700 1.301 -9.809 0.071 0.479 -5.066 0.048 1.81265E-05 1.48204E-05 6.52200E-06
2233.00000 22452.800 1.349 -10.314 0.075 0.475 -5.029 0.040 1.79258E-05 1.46910E-05 6.45918E-06
2233.00000 22452.900 1.396 -10.813 0.078 0.451 -4.974 0.033 1.77252E-05 1.45614E-05 6.39646E-06
2233.00000 22453.000 1.442 -11.308 0.082 0.422 -4.923 0.039 1.75247E-05 1.44316E-05 6.33385E-06
2233.00000 22453.100 1.485 -11.798 0.084 0.416 -4.877 0.029 1.73447E-05 1.43032E-05 6.28861E-06
2233.00000 22453.200 1.526 -12.284 0.087 0.379 -4.835 0.031 1.71647E-05 1.41748E-05 6.24334E-06
2233.00000 22453.300 1.566 -12.764 0.090 0.369 -4.781 0.042 1.69846E-05 1.40465E-05 6.19805E-06
2233.00000 22453.400 1.601 -13.241 0.093 0.343 -4.733 0.017 1.68046E-05 1.39181E-05 6.15274E-06
2233.00000 22453.500 1.636 -13.712 0.095 0.323 -4.695 0.008 1.66246E-05 1.37898E-05 6.10740E-06
2233.00000 22453.600 1.667 -14.180 0.096 0.299 -4.653 0.021 1.64446E-05 1.36615E-05 6.06203E-06
2233.00000 22453.700 1.696 -14.643 0.098 0.275 -4.614 0.008 1.62646E-05 1.35333E-05 6.01664E-06
2233.00000 22453.800 1.724 -15.101 0.100 0.258 -4.556 0.012 1.60846E-05 1.34050E-05 5.97123E-06
2233.00000 22453.900 1.749 -15.553 0.102 0.228 -4.499 0.029 1.59046E-05 1.32768E-05 5.92579E-06
2233.00000 22454.000 1.771 -16.000 0.106 0.195 -4.446 0.035 1.57246E-05 1.31486E-05 5.88033E-06
2233.00000 22454.100 1.791 -16.442 0.109 0.188 -4.391 0.039 1.55563E-05 1.30386E-05 5.83004E-06
2233.00000 22454.200 1.811 -16.879 0.112 0.188 -4.354 0.014 1.53880E-05 1.29284E-05 5.77989E-06
2233.00000 22454.300 1.830 -17.312 0.112 0.164 -4.309 0.007 1.52197E-05 1.28181E-05 5.72987E-06
2233.00000 22454.400 1.848 -17.739 0.114 0.163 -4.255 0.015 1.50514E-05 1.27077E-05 5.67999E-06
2233.00000 22454.500 1.863 -18.163 0.115 0.121 -4.208 0.032 1.48831E-05 1.25972E-05 5.63024E-06
2233.00000 22454.600 1.874 -18.582 0.119 0.084 -4.172 0.041 1.47148E-05 1.24865E-05 5.58063E-06
2233.00000 22454.700 1.880 -18.996 0.124 0.062 -4.105 0.057 1.45464E-05 1.23758E-05 5.53115E-06
2233.00000 22454.800 1.887 -19.404 0.129 0.081 -4.035 0.042 1.43780E-05 1.22649E-05 5.48181E-06
2233.00000 22454.900 1.895 -19.805 0.131 0.067 -3.975 0.020 1.42096E-05 1.21539E-05 5.43260E-06
2233.00000 22455.000 1.901 -20.199 0.133 0.033 -3.925 0.020 1.40412E-05 1.20428E-05 5.38353E-06
2233.00000 22455.100 1.904 -20.590 0.135 0.007 -3.878 0.021 1.38845E-05 1.19363E-05 5.34258E-06
2233.00000 22455.200 1.904 -20.975 0.139 -0.028 -3.829 0.026 1.37277E-05 1.18298E-05 5.30171E-06
2233.00000 22455.300 1.901 -21.354 0.142 -0.046 -3.775 0.030 1.35708E-05 1.17232E-05 5.26091E-06
2233.00000 22455.400 1.897 -21.728 0.146 -0.055 -3.707 0.045 1.34139E-05 1.16166E-05 5.22019E-06
2233.00000 22455.500 1.892 -22.096 0.150 -0.040 -3.655 0.033 1.32569E-05 1.15101E-05 5.17955E-06
2233.00000 22455.600 1.886 -22.459 0.153 -0.078 -3.596 0.027 1.30999E-05 1.14035E-05 5.13899E-06
2233.00000 22455.700 1.879 -22.814 0.157 -0.106 -3.529 0.037 1.29428E-05 1.12968E-05 5.09851E-06
2233.00000 22455.800 1.868 -23.165 0.161 -0.119 -3.477 0.048 1.27857E-05 1.11902E-05 5.05810E-06
2233.00000 22455.900 1.857 -23.510 0.164 -0.115 -3.428 0.025 1.26285E-05 1.10835E-05 5.01777E-06
2233.00000 22456.000 1.845 -23.850 0.167 -0.110 -3.362 0.036 1.24712E-05 1.09768E-05 4.97752E-06
2233.00000 22456.100 1.836 -24.183 0.169 -0.098 -3.301 0.033 1.23186E-05 1.08806E-05 4.93882E-06
2233.00000 22456.200 1.826 -24.510 0.172 -0.119 -3.250 0.024 1.21661E-05 1.07843E-05 4.90020E-06
2233.00000 22456.300 1.815 -24.833 0.175 -0.129 -3.186 0.001 1.20135E-05 1.06879E-05 4.86167E-06
2233.00000 22456.400 1.801 -25.147 0.177 -0.153 -3.113 0.029 1.18610E-05 1.05913E-05 4.82322E-06
2233.00000 22456.500 1.785 -25.455 0.180 -0.173 -3.057 0.034 1.17085E-05 1.04947E-05 4.78485E-06
2233.00000 22456.600 1.768 -25.758 0.184 -0.164 -2.993 0.020 1.15560E-05 1.03980E-05 4.74656E-06
2233.00000 22456.700 1.752 -26.053 0.186 -0.148 -2.925 0.010 1.14035E-05 1.03012E-05 4.70836E-06
2233.00000 22456.800 1.738 -26.343 0.189 -0.146 -2.860 0.029 1.12510E-05 1.02043E-05 4.67025E-06
2233.00000 22456.900 1.724 -26.626 0.191 -0.154 -2.811 0.014 1.10986E-05 1.01072E-05 4.63221E-06
2233.00000 22457.000 1.708 -26.904 0.193 -0.155 -2.741 0.030 1.09462E-05 1.00101E-05 4.59426E-06
2233.00000 22457.100 1.693 -27.174 0.195 -0.155 -2.677 0.021 1.08130E-05 9.92061E-06 4.56162E-06
2233.00000 22457.200 1.678 -27.441 0.197 -0.161 -2.654 -0.012 1.06799E-05 9.83107E-06 4.52902E-06
2233.00000 22457.300 1.661 -27.704 0.196 -0.206 -2.623 -0.017 1.05468E-05 9.74148E-06 4.49647E-06
2233.00000 22457.400 1.643 -27.962 0.196 -0.164 -2.536 0.009 1.04136E-05 9.65186E-06 4.46395E-06
2233.00000 22457.500 1.629 -28.210 0.199 -0.125 -2.431 0.042 1.02805E-05 9.56220E-06 4.43148E-06
2233.00000 22457.600 1.616 -28.450 0.204 -0.155 -2.353 0.051 1.01474E-05 9.47249E-06 4.39905E-06
2233.00000 22457.700 1.598 -28.682 0.208 -0.168 -2.280 0.039 1.00142E-05 9.38275E-06 4.36666E-06
2233.00000 22457.800 1.583 -28.906 0.212 -0.155 -2.203 0.052 9.88108E-06 9.29296E-06 4.33432E-06
2233.00000 22457.900 1.570 -29.126 0.214 -0.106 -2.176 0.014 9.74793E-06 9.20313E-06 4.30201E-06
2233.00000 22458.000 1.560 -29.340 0.215 -0.114 -2.125 -0.001 9.61479E-06 9.11326E-06 4.26975E-06
2233.00000 22458.100 1.549 -29.549 0.216 -0.110 -2.069 0.016 9.49386E-06 9.03262E-06 4.23911E-06
2233.00000 22458.200 1.539 -29.754 0.218 -0.125 -2.020 0.018 9.37296E-06 8.95192E-06 4.20851E-06
2233.00000 22458.300 1.526 -29.954 0.220 -0.125 -1.974 0.004 9.25208E-06 8.87116E-06 4.17794E-06
2233.00000 22458.400 1.513 -30.147 0.220 -0.129 -1.912 -0.020 9.13123E-06 8.79034E-06 4.14742E-06
2233.00000 22458.500 1.500 -30.337 0.219 -0.145 -1.876 -0.020 9.01040E-06 8.70945E-06 4.11692E-06
2233.00000 22458.600 1.488 -30.524 0.218 -0.106 -1.859 0.030 8.88960E-06 8.62850E-06 4.08647E-06
2233.00000 22458.700 1.479 -30.708 0.223 -0.089 -1.819 0.058 8.76883E-06 8.54748E-06 4.05605E-06
2233.00000 22458.800 1.469 -30.887 0.227 -0.098 -1.750 0.031 8.64809E-06 8.46640E-06 4.02567E-06
2233.00000 22458.900 1.458 -31.058 0.228 -0.136 -1.674 0.006 8.52738E-06 8.38525E-06 3.99532E-06
2233.00000 22459.000 1.444 -31.222 0.229 -0.158 -1.612 0.002 8.40670E-06 8.30403E-06 3.96502E-06
2233.00000 22459.100 1.430 -31.382 0.232 -0.111 -1.571 0.039 8.29937E-06 8.22083E-06 3.93749E-06
2233.00000 22459.200 1.421 -31.536 0.237 -0.073 -1.506 0.048 8.19199E-06 8.13768E-06 3.90996E-06
2233.00000 22459.300 1.416 -31.682 0.240 -0.069 -1.437 0.004 8.08454E-06 8.05461E-06 3.88242E-06
2233.00000 22459.400 1.409 -31.822 0.239 -0.089 -1.377 -0.013 7.97704E-06 7.97161E-06 3.85487E-06
2233.00000 22459.500 1.400 -31.957 0.239 -0.099 -1.330 0.003 7.86947E-06 7.88867E-06 3.82731E-06
2233.00000 22459.600 1.391 -32.089 0.240 -0.084 -1.297 0.010 7.76186E-06 7.80579E-06 3.79974E-06
2233.00000 22459.700 1.383 -32.216 0.243 -0.074 -1.235 0.016 7.65418E-06 7.72299E-06 3.77216E-06
2233.00000 22459.800 1.376 -32.336 0.243 -0.075 -1.167 0.015 7.54645E-06 7.64025E-06 3.74458E-06
2233.00000 22459.900 1.368 -32.450 0.245 -0.072 -1.118 0.016 7.43866E-06 7.55757E-06 3.71698E-06
2233.00000 22460.000 1.362 -32.558 0.245 -0.068 -1.046 0.008 7.33081E-06 7.47496E-06 3.68938E-06
2233.00000 22460.100 1.356 -32.660 0.247 -0.063 -0.975 -0.002 7.23654E-06 7.39224E-06 3.66277E-06
2233.00000 22460.200 1.350 -32.754 0.248 -0.060 -0.922 0.004 7.14214E-06 7.30970E-06 3.63612E-06
2233.00000 22460.300 1.345 -32.842 0.248 -0.067 -0.859 0.009 7.04761E-06 7.22732E-06 3.60943E-06
2233.00000 22460.400 1.339 -32.925 0.248 -0.051 -0.789 0.001 6.95295E-06 7.14510E-06 3.58271E-06
2233.00000 22460.500 1.334 -33.001 0.250 -0.040 -0.725 -0.003 6.85816E-06 7.06305E-06 3.55595E-06
2233.00000 22460.600 1.330 -33.071 0.250 -0.046 -0.675 0.009 6.76324E-06 6.98117E-06 3.52915E-06
2233.00000 22460.700 1.327 -33.135 0.251 -0.044 -0.614 0.012 6.66819E-06 6.89945E-06 3.50232E-06
2233.00000 22460.800 1.322 -33.193 0.251 -0.037 -0.542 0.004 6.57302E-06 6.81789E-06 3.47545E-06
2233.00000 22460.900 1.319 -33.244 0.252 -0.032 -0.482 0.001 6.47772E-06 6.73650E-06 3.44855E-06
2233.00000 22461.000 1.316 -33.290 0.252 -0.024 -0.419 0.000 6.38229E-06 6.65527E-06 3.42161E-06
2233.00000 22461.100 1.313 -33.329 0.253 -0.023 -0.349 0.001 6.30067E-06 6.58524E-06 3.39398E-06
2233.00000 22461.200 1.312 -33.360 0.254 -0.024 -0.292 0.004 6.21897E-06 6.51530E-06 3.36635E-06
2233.00000 22461.300 1.311 -33.386 0.255 -0.019 -0.225 0.001 6.13718E-06 6.44545E-06 3.33872E-06
2233.00000 22461.400 1.310 -33.405 0.255 -0.013 -0.163 0.005 6.05531E-06 6.37568E-06 3.31109E-06
2233.00000 22461.500 1.309 -33.418 0.255 -0.009 -0.104 0.001 5.97336E-06 6.30599E-06 3.28345E-06
2233.00000 22461.600 1.309 -33.419 0.255 -0.005 -0.041 0.003 5.89133E-06 6.23640E-06 3.25581E-06
2233.00000 22461.700 1.309 -33.419 0.255 0.001 0.013 -0.001 5.80921E-06 6.16688E-06 3.22817E-06
2233.00000 22461.800 1.308 -33.419 0.256 0.004 0.025 -0.001 5.72701E-06 6.09746E-06 3.20053E-06
2233.00000 22461.900 1.308 -33.418 0.256 0.004 -0.011 0.007 5.64473E-06 6.02811E-06 3.17288E-06
2233.00000 22462.000 1.309 -33.419 0.256 -0.000 -0.008 -0.001 5.56237E-06 5.95885E-06 3.14523E-06
2233.00000 22462.100 1.309 -33.419 0.256 -0.005 0.015 0.001 5.49288E-06 5.91034E-06 3.12164E-06
2233.00000 22462.200 1.310 -33.419 0.257 -0.003 -0.002 0.005 5.42345E-06 5.86176E-06 3.09806E-06
2233.00000 22462.300 1.310 -33.419 0.257 -0.002 -0.011 0.000 5.35410E-06 5.81309E-06 3.07450E-06
2233.00000 22462.400 1.311 -33.419 0.257 -0.001 0.003 0.005 5.28481E-06 5.76433E-06 3.05095E-06
2233.00000 22462.500 1.311 -33.418 0.258 0.001 0.007 -0.000 5.21559E-06 5.71549E-06 3.02743E-06
2233.00000 22462.600 1.311 -33.418 0.258 0.001 -0.005 -0.002 5.14643E-06 5.66657E-06 3.00391E-06
2233.00000 22462.700 1.311 -33.418 0.258 -0.000 -0.001 -0.001 5.07735E-06 5.61756E-06 2.98041E-06
2233.00000 22462.800 1.311 -33.418 0.258 -0.002 0.005 0.003 5.00834E-06 5.56847E-06 2.95693E-06
2233.00000 22462.900 1.310 -33.419 0.258 -0.003 -0.003 0.004 4.93939E-06 5.51929E-06 2.93346E-06
2233.00000 22463.000 1.310 -33.419 0.258 -0.004 -0.006 0.004 4.87052E-06 5.47002E-06 2.91001E-06
2233.00000 22463.100 1.311 -33.419 0.259 -0.002 0.003 0.002 4.80782E-06 5.42994E-06 2.88678E-06
2233.00000 22463.200 1.311 -33.419 0.259 0.002 0.002 -0.000 4.74523E-06 5.38971E-06 2.86358E-06
2233.00000 22463.300 1.312 -33.418 0.260 0.001 -0.003 0.001 4.68274E-06 5.34934E-06 2.84042E-06
2233.00000 22463.400 1.312 -33.418 0.260 -0.000 0.002 -0.001 4.62035E-06 5.30883E-06 2.81730E-06
2233.00000 22463.500 1.312 -33.418 0.260 -0.003 0.001 0.002 4.55807E-06 5.26819E-06 2.79422E-06
2233.00000 22463.600 1.312 -33.418 0.260 -0.004 -0.005 0.002 4.49589E-06 5.22740E-06 2.77117E-06
2233.00000 22463.700 1.312 -33.418 0.260 -0.003 -0.002 0.004 4.43381E-06 5.18647E-06 2.74817E-06
2233.00000 22463.800 1.312 -33.419 0.260 -0.001 0.003 0.004 4.37184E-06 5.14540E-06 2.72520E-06
2233.00000 22463.900 1.312 -33.419 0.260 0.002 0.001 -0.001 4.30997E-06 5.10418E-06 2.70226E-06
2233.00000 22464.000 1.312 -33.419 0.260 0.001 -0.001 -0.001 4.24820E-06 5.06283E-06 2.67937E-06
2233.00000 22464.100 1.312 -33.419 0.260 -0.002 0.001 0.001 4.21301E-06 4.98425E-06 2.67147E-06
2233.00000 22464.200 1.312 -33.419 0.260 -0.004 -0.003 0.005 4.17739E-06 4.90629E-06 2.66339E-06
2233.00000 22464.300 1.313 -33.420 0.260 -0.004 -0.005 0.007 4.14132E-06 4.82893E-06 2.65515E-06
2233.00000 22464.400 1.313 -33.419 0.259 -0.000 0.000 0.001 4.10482E-06 4.75218E-06 2.64674E-06
2233.00000 22464.500 1.313 -33.419 0.259 0.001 0.002 -0.002 4.06788E-06 4.67604E-06 2.63816E-06
2233.00000 22464.600 1.313 -33.419 0.259 0.000 -0.000 -0.001 4.03050E-06 4.60050E-06 2.62942E-06
2233.00000 22464.700 1.313 -33.420 0.260 -0.002 -0.000 0.003 3.99269E-06 4.52557E-06 2.62050E-06
2233.00000 22464.800 1.312 -33.420 0.260 -0.004 -0.002 0.006 3.95443E-06 4.45126E-06 2.61141E-06
2233.00000 22464.900 1.311 -33.420 0.261 -0.002 -0.004 0.004 3.91573E-06 4.37755E-06 2.60215E-06
2233.00000 22465.000 1.311 -33.420 0.261 -0.001 -0.001 0.002 3.87659E-06 4.30445E-06 2.59273E-06
2233.00000 22465.100 1.311 -33.420 0.261 0.000 0.001 -0.000 3.85630E-06 4.27101E-06 2.58525E-06
2233.00000 22465.200 1.311 -33.420 0.261 0.000 0.001 0.001 3.83592E-06 4.23769E-06 2.57775E-06
2233.00000 22465.300 1.312 -33.420 0.260 -0.001 -0.000 0.000 3.81544E-06 4.20449E-06 2.57022E-06
2233.00000 22465.400 1.312 -33.420 0.260 -0.003 -0.002 0.004 3.79488E-06 4.17142E-06 2.56266E-06
2233.00000 22465.500 1.313 -33.420 0.260 -0.003 -0.004 0.006 3.77421E-06 4.13846E-06 2.55507E-06
2233.00000 22465.600 1.313 -33.420 0.260 -0.001 -0.001 0.004 3.75346E-06 4.10562E-06 2.54746E-06
2233.00000 22465.700 1.313 -33.420 0.260 0.001 0.001 0.000 3.73261E-06 4.07290E-06 2.53982E-06
2233.00000 22465.800 1.313 -33.420 0.260 0.001 0.000 -0.002 3.71167E-06 4.04031E-06 2.53215E-06
2233.00000 22465.900 1.313 -33.420 0.260 -0.001 -0.000 0.000 3.69064E-06 4.00783E-06 2.52445E-06
2233.00000 22466.000 1.313 -33.420 0.260 -0.004 -0.003 0.005 3.66951E-06 3.97548E-06 2.51673E-06
2233.00000 22466.100 1.313 -33.420 0.260 -0.003 -0.002 0.006 3.65730E-06 3.95889E-06 2.51238E-06
2233.00000 22466.200 1.313 -33.420 0.260 -0.002 -0.001 0.004 3.64506E-06 3.94233E-06 2.50803E-06
2233.00000 22466.300 1.313 -33.420 0.260 0.002 0.001 -0.004 3.63280E-06 3.92580E-06 2.50367E-06
2233.00000 22466.400 1.313 -33.420 0.260 0.001 0.001 0.001 3.62052E-06 3.90930E-06 2.49931E-06
2233.00000 22466.500 1.313 -33.420 0.260 -0.002 -0.003 0.001 3.60822E-06 3.89283E-06 2.49494E-06
2233.00000 22466.600 1.313 -33.420 0.260 -0.005 -0.002 0.006 3.59589E-06 3.87639E-06 2.49056E-06
2233.00000 22466.700 1.313 -33.420 0.260 -0.003 -0.003 0.007 3.58354E-06 3.85998E-06 2.48617E-06
2233.00000 22466.800 1.313 -33.420 0.260 0.000 -0.002 0.001 3.57117E-06 3.84360E-06 2.48178E-06
2233.00000 22466.900 1.313 -33.420 0.260 0.001 0.001 0.000 3.55877E-06 3.82725E-06 2.47738E-06
2233.00000 22467.000 1.313 -33.420 0.260 0.001 0.001 0.000 3.54636E-06 3.81092E-06 2.47298E-06
2233.00000 22467.100 1.313 -33.420 0.260 0.000 -0.001 0.001 3.54129E-06 3.80455E-06 2.47175E-06
2233.00000 22467.200 1.314 -33.420 0.261 -0.003 -0.003 0.005 3.53623E-06 3.79818E-06 2.47051E-06
2233.00000 22467.300 1.314 -33.420 0.261 -0.005 -0.003 0.005 3.53116E-06 3.79181E-06 2.46927E-06
2233.00000 22467.400 1.314 -33.419 0.260 -0.002 -0.003 0.005 3.52609E-06 3.78545E-06 2.46803E-06
2233.00000 22467.500 1.314 -33.419 0.260 0.002 0.000 -0.000 3.52102E-06 3.77909E-06 2.46679E-06
2233.00000 22467.600 1.314 -33.419 0.260 0.001 0.001 0.000 3.51594E-06 3.77274E-06 2.46555E-06
2233.00000 22467.700 1.314 -33.419 0.260 -0.001 -0.001 -0.000 3.51086E-06 3.76639E-06 2.46431E-06
2233.00000 22467.800 1.314 -33.420 0.261 -0.003 -0.002 0.003 3.50577E-06 3.76005E-06 2.46306E-06
2233.00000 22467.900 1.314 -33.420 0.261 -0.002 -0.005 0.006 3.50068E-06 3.75371E-06 2.46182E-06
2233.00000 22468.000 1.314 -33.420 0.261 -0.002 -0.003 0.005 3.49559E-06 3.74737E-06 2.46057E-06
2233.00000 22468.100 1.314 -33.420 0.261 0.002 0.000 0.001 3.49697E-06 3.74999E-06 2.46212E-06
2233.00000 22468.200 1.314 -33.420 0.261 0.003 0.000 -0.002 3.49835E-06 3.75261E-06 2.46366E-06
2233.00000 22468.300 1.314 -33.419 0.260 -0.001 -0.000 0.000 3.49972E-06 3.75523E-06 2.46521E-06
2233.00000 22468.400 1.315 -33.420 0.260 -0.004 -0.003 0.003 3.50110E-06 3.75784E-06 2.46676E-06
2233.00000 22468.500 1.315 -33.420 0.260 -0.003 -0.004 0.008 3.50247E-06 3.76046E-06 2.46830E-06
2233.00000 22468.600 1.315 -33.420 0.260 0.001 -0.004 0.004 3.50385E-06 3.76308E-06 2.46985E-06
2233.00000 22468.700 1.315 -33.420 0.260 0.001 0.001 0.000 3.50522E-06 3.76570E-06 2.47140E-06
2233.00000 22468.800 1.315 -33.420 0.260 0.001 0.002 -0.002 3.50659E-06 3.76833E-06 2.47294E-06
2233.00000 22468.900 1.315 -33.420 0.261 0.000 -0.003 0.001 3.50796E-06 3.77095E-06 2.47449E-06
2233.00000 22469.000 1.315 -33.420 0.261 -0.003 -0.004 0.007 3.50934E-06 3.77357E-06 2.47604E-06
2233.00000 22469.100 1.315 -33.420 0.261 -0.002 -0.003 0.007 3.51863E-06 3.78579E-06 2.48083E-06
2233.00000 22469.200 1.315 -33.420 0.260 0.000 -0.002 0.001 3.52790E-06 3.79802E-06 2.48561E-06
2233.00000 22469.300 1.315 -33.420 0.260 0.002 0.000 -0.000 3.53717E-06 3.81027E-06 2.49040E-06
2233.00000 22469.400 1.315 -33.420 0.260 -0.000 0.001 -0.001 3.54642E-06 3.82253E-06 2.49518E-06
2233.00000 22469.500 1.315 -33.420 0.260 -0.002 -0.003 0.005 3.55566E-06 3.83481E-06 2.49996E-06
2233.00000 22469.600 1.315 -33.420 0.260 -0.002 -0.006 0.006 3.56488E-06 3.84710E-06 2.50474E-06
2233.00000 22469.700 1.315 -33.420 0.260 -0.001 -0.002 0.003 3.57409E-06 3.85941E-06 2.50952E-06
2233.00000 22469.800 1.315 -33.420 0.260 0.001 0.001 0.003 3.58329E-06 3.87173E-06 2.51430E-06
2233.00000 22469.900 1.315 -33.420 0.261 0.002 0.000 -0.000 3.59248E-06 3.88407E-06 2.51907E-06
2233.00000 22470.000 1.315 -33.420 0.261 0.001 -0.001 0.001 3.60165E-06 3.89643E-06 2.52385E-06
2233.00000 22470.100 1.313 -33.420 0.261 -0.001 -0.002 0.002 3.62113E-06 3.92161E-06 2.53216E-06
2233.00000 22470.200 1.313 -33.421 0.262 -0.004 -0.003 0.005 3.64056E-06 3.94686E-06 2.54045E-06
2233.00000 22470.300 1.312 -33.421 0.263 -0.002 -0.004 0.007 3.65993E-06 3.97217E-06 2.54874E-06
2233.00000 22470.400 1.312 -33.422 0.264 0.000 -0.001 0.004 3.67925E-06 3.99755E-06 2.55701E-06
2233.00000 22470.500 1.312 -33.422 0.264 0.000 -0.001 0.001 3.69851E-06 4.02300E-06 2.56528E-06
2233.00000 22470.600 1.312 -33.422 0.264 0.001 -0.001 -0.001 3.71772E-06 4.04851E-06 2.57353E-06
2233.00000 22470.700 1.312 -33.422 0.264 0.001 0.001 0.001 3.73687E-06 4.07408E-06 2.58177E-06
2233.00000 22470.800 1.312 -33.422 0.264 -0.002 -0.004 0.004 3.75597E-06 4.09973E-06 2.59000E-06
2233.00000 22470.900 1.313 -33.422 0.264 -0.004 -0.005 0.007 3.77502E-06 4.12544E-06 2.59822E-06
2233.00000 22471.000 1.313 -33.422 0.263 -0.002 -0.003 0.005 3.79401E-06 4.15121E-06 2.60642E-06
2233.00000 22471.100 1.313 -33.422 0.264 0.003 -0.000 0.000 3.82020E-06 4.16442E-06 2.61720E-06
2233.00000 22471.200 1.314 -33.422 0.264 0.004 -0.000 0.001 3.84644E-06 4.17758E-06 2.62799E-06
2233.00000 22471.300 1.313 -33.423 0.265 0.000 -0.001 0.001 3.87271E-06 4.19070E-06 2.63879E-06
2233.00000 22471.400 1.313 -33.423 0.265 -0.003 -0.003 0.004 3.89902E-06 4.20376E-06 2.64960E-06
2233.00000 22471.500 1.312 -33.423 0.266 -0.003 -0.005 0.004 3.92536E-06 4.21677E-06 2.66043E-06
2233.00000 22471.600 1.312 -33.423 0.266 -0.001 -0.003 0.004 3.95175E-06 4.22974E-06 2.67127E-06
2233.00000 22471.700 1.310 -33.424 0.268 0.001 -0.000 0.003 3.97817E-06 4.24265E-06 2.68211E-06
2233.00000 22471.800 1.307 -33.425 0.269 0.002 0.000 -0.000 4.00463E-06 4.25552E-06 2.69297E-06
2233.00000 22471.900 1.306 -33.425 0.270 0.002 0.000 -0.000 4.03112E-06 4.26833E-06 2.70385E-06
2233.00000 22472.000 1.304 -33.426 0.271 0.000 -0.002 0.001 4.05766E-06 4.28110E-06 2.71473E-06
2233.00000 22472.100 1.302 -33.427 0.272 -0.002 -0.004 0.007 4.08401E-06 4.29607E-06 2.72615E-06
2233.00000 22472.200 1.302 -33.427 0.273 -0.003 -0.004 0.007 4.11040E-06 4.31099E-06 2.73757E-06
2233.00000 22472.300 1.302 -33.427 0.273 0.001 -0.002 0.003 4.13681E-06 4.32587E-06 2.74901E-06
2233.00000 22472.400 1.301 -33.428 0.274 0.003 -0.000 0.000 4.16326E-06 4.34071E-06 2.76046E-06
2233.00000 22472.500 1.301 -33.428 0.275 0.003 -0.000 -0.001 4.18973E-06 4.35552E-06 2.77193E-06
2233.00000 22472.600 1.301 -33.429 0.275 -0.001 -0.002 0.003 4.21622E-06 4.37028E-06 2.78340E-06
2233.00000 22472.700 1.299 -33.429 0.277 -0.003 -0.005 0.007 4.24275E-06 4.38500E-06 2.79489E-06
2233.00000 22472.800 1.297 -33.430 0.278 -0.002 -0.004 0.005 4.26931E-06 4.39968E-06 2.80639E-06
2233.00000 22472.900 1.295 -33.431 0.279 0.001 -0.001 0.002 4.29589E-06 4.41432E-06 2.81790E-06
2233.00000 22473.000 1.294 -33.431 0.279 0.004 0.000 -0.001 4.32250E-06 4.42893E-06 2.82942E-06
2233.00000 22473.100 1.293 -33.432 0.281 0.002 -0.001 0.000 4.35287E-06 4.44753E-06 2.84328E-06
2233.00000 22473.200 1.293 -33.432 0.282 -0.001 -0.003 0.004 4.38326E-06 4.46610E-06 2.85714E-06
2233.00000 22473.300 1.293 -33.432 0.282 -0.003 -0.003 0.004 4.41367E-06 4.48463E-06 2.87102E-06
2233.00000 22473.400 1.292 -33.433 0.283 -0.001 -0.005 0.008 4.44412E-06 4.50312E-06 2.88491E-06
2233.00000 22473.500 1.292 -33.433 0.283 0.002 -0.003 0.005 4.47458E-06 4.52157E-06 2.89882E-06
2233.00000 22473.600 1.292 -33.434 0.284 0.003 0.001 0.002 4.50507E-06 4.53998E-06 2.91275E-06
2233.00000 22473.700 1.290 -33.434 0.285 0.001 0.000 -0.000 4.53559E-06 4.55835E-06 2.92669E-06
2233.00000 22473.800 1.289 -33.435 0.286 0.000 -0.003 0.001 4.56612E-06 4.57668E-06 2.94064E-06
2233.00000 22473.900 1.288 -33.436 0.287 -0.002 -0.004 0.007 4.59669E-06 4.59498E-06 2.95461E-06
2233.00000 22474.000 1.286 -33.436 0.288 -0.002 -0.004 0.007 4.62728E-06 4.61323E-06 2.96859E-06
2233.00000 22474.100 1.285 -33.437 0.289 0.002 -0.003 0.005 4.66499E-06 4.63710E-06 2.98705E-06
2233.00000 22474.200 1.285 -33.437 0.289 0.005 0.001 -0.002 4.70273E-06 4.66093E-06 3.00553E-06
2233.00000 22474.300 1.286 -33.438 0.290 0.002 0.000 -0.000 4.74050E-06 4.68470E-06 3.02404E-06
2233.00000 22474.400 1.286 -33.438 0.291 -0.001 -0.004 0.003 4.77829E-06 4.70844E-06 3.04256E-06
2233.00000 22474.500 1.286 -33.438 0.291 -0.002 -0.005 0.008 4.81611E-06 4.73213E-06 3.06110E-06
2233.00000 22474.600 1.285 -33.439 0.293 -0.001 -0.004 0.007 4.85395E-06 4.75577E-06 3.07967E-06
2233.00000 22474.700 1.284 -33.439 0.294 0.003 -0.001 0.001 4.89181E-06 4.77937E-06 3.09825E-06
2233.00000 22474.800 1.283 -33.441 0.294 0.004 0.000 -0.001 4.92970E-06 4.80292E-06 3.11686E-06
2233.00000 22474.900 1.281 -33.441 0.295 0.002 -0.001 0.000 4.96762E-06 4.82643E-06 3.13548E-06
2233.00000 22475.000 1.281 -33.442 0.296 -0.002 -0.003 0.005 5.00556E-06 4.84989E-06 3.15413E-06
2233.00000 22475.100 1.280 -33.442 0.296 -0.002 -0.007 0.009 5.05166E-06 4.88531E-06 3.17619E-06
2233.00000 22475.200 1.281 -33.443 0.297 0.002 -0.003 0.005 5.09774E-06 4.92075E-06 3.19825E-06
2233.00000 22475.300 1.282 -33.443 0.298 0.004 -0.002 0.003 5.14381E-06 4.95621E-06 3.22030E-06
2233.00000 22475.400 1.282 -33.444 0.297 0.002 -0.025 -0.003 5.18988E-06 4.99169E-06 3.24234E-06
2233.00000 22475.500 1.282 -33.449 0.298 -0.003 -0.064 0.003 5.23593E-06 5.02719E-06 3.26437E-06
2233.00000 22475.600 1.280 -33.457 0.299 -0.008 -0.104 0.008 5.28198E-06 5.06270E-06 3.28639E-06
2233.00000 22475.700 1.278 -33.470 0.299 -0.013 -0.139 0.008 5.32801E-06 5.09823E-06 3.30841E-06
2233.00000 22475.800 1.276 -33.486 0.301 -0.015 -0.177 0.007 5.37404E-06 5.13378E-06 3.33041E-06
2233.00000 22475.900 1.273 -33.506 0.303 -0.015 -0.216 0.004 5.42005E-06 5.16935E-06 3.35241E-06
2233.00000 22476.000 1.270 -33.530 0.304 -0.015 -0.254 0.003 5.46606E-06 5.20494E-06 3.37440E-06
2233.00000 22476.100 1.268 -33.558 0.306 -0.021 -0.298 0.005 5.51148E-06 5.24025E-06 3.39727E-06
2233.00000 22476.200 1.266 -33.590 0.306 -0.029 -0.339 0.010 5.55687E-06 5.27558E-06 3.42016E-06
2233.00000 22476.300 1.264 -33.625 0.306 -0.032 -0.374 0.010 5.60222E-06 5.31094E-06 3.44306E-06
2233.00000 22476.400 1.261 -33.664 0.307 -0.034 -0.407 0.003 5.64753E-06 5.34631E-06 3.46598E-06
2233.00000 22476.500 1.257 -33.708 0.308 -0.038 -0.444 0.003 5.69281E-06 5.38171E-06 3.48892E-06
2233.00000 22476.600 1.252 -33.755 0.309 -0.053 -0.490 0.007 5.73805E-06 5.41712E-06 3.51187E-06
2233.00000 22476.700 1.245 -33.807 0.310 -0.063 -0.535 0.006 5.78325E-06 5.45256E-06 3.53484E-06
2233.00000 22476.800 1.236 -33.862 0.312 -0.076 -0.581 0.009 5.82841E-06 5.48802E-06 3.55782E-06
2233.00000 22476.900 1.226 -33.924 0.314 -0.084 -0.622 0.008 5.87354E-06 5.52350E-06 3.58082E-06
2233.00000 22477.000 1.217 -33.988 0.315 -0.095 -0.671 0.004 5.91863E-06 5.55901E-06 3.60384E-06
2233.00000 22477.100 1.206 -34.059 0.316 -0.106 -0.721 0.006 5.96369E-06 5.59339E-06 3.62287E-06
2233.00000 22477.200 1.194 -34.134 0.317 -0.119 -0.773 0.004 6.00874E-06 5.62781E-06 3.64191E-06
2233.00000 22477.300 1.183 -34.214 0.317 -0.135 -0.833 -0.001 6.05375E-06 5.66224E-06 3.66094E-06
2233.00000 22477.400 1.169 -34.301 0.319 -0.158 -0.896 0.003 6.09875E-06 5.69671E-06 3.67997E-06
2233.00000 22477.500 1.153 -34.392 0.319 -0.164 -0.959 0.002 6.14372E-06 5.73119E-06 3.69900E-06
2233.00000 22477.600 1.134 -34.492 0.320 -0.190 -1.021 0.008 6.18867E-06 5.76570E-06 3.71803E-06
2233.00000 22477.700 1.113 -34.598 0.322 -0.202 -1.088 0.006 6.23360E-06 5.80023E-06 3.73706E-06
2233.00000 22477.800 1.091 -34.711 0.323 -0.225 -1.163 -0.001 6.27850E-06 5.83479E-06 3.75610E-06
2233.00000 22477.900 1.067 -34.830 0.323 -0.237 -1.229 0.007 6.32338E-06 5.86937E-06 3.77512E-06
2233.00000 22478.000 1.043 -34.957 0.325 -0.257 -1.297 0.010 6.36823E-06 5.90397E-06 3.79415E-06
2233.00000 22478.100 1.016 -35.091 0.326 -0.264 -1.369 0.007 6.40877E-06 5.93510E-06 3.80770E-06
2233.00000 22478.200 0.989 -35.230 0.327 -0.288 -1.412 0.010 6.44928E-06 5.96626E-06 3.82125E-06
2233.00000 22478.300 0.960 -35.374 0.328 -0.308 -1.483 0.014 6.48976E-06 5.99745E-06 3.83479E-06
2233.00000 22478.400 0.928 -35.527 0.329 -0.338 -1.578 0.009 6.53022E-06 6.02866E-06 3.84833E-06
2233.00000 22478.500 0.892 -35.690 0.330 -0.372 -1.677 0.011 6.57066E-06 6.05990E-06 3.86187E-06
2233.00000 22478.600 0.854 -35.864 0.330 -0.399 -1.799 0.015 6.61106E-06 6.09117E-06 3.87540E-06
2233.00000 22478.700 0.811 -36.052 0.333 -0.426 -1.930 0.025 6.65144E-06 6.12247E-06 3.88894E-06
2233.00000 22478.800 0.765 -36.253 0.335 -0.462 -2.070 0.013 6.69180E-06 6.15379E-06 3.90247E-06
2233.00000 22478.900 0.716 -36.466 0.337 -0.499 -2.215 0.005 6.73213E-06 6.18514E-06 3.91600E-06
2233.00000 22479.000 0.664 -36.696 0.338 -0.522 -2.363 0.011 6.77244E-06 6.21652E-06 3.92953E-06
2233.00000 22479.100 0.612 -36.939 0.340 -0.547 -2.508 0.006 6.80366E-06 6.24384E-06 3.93689E-06
2233.00000 22479.200 0.555 -37.197 0.342 -0.588 -2.651 0.001 6.83484E-06 6.27118E-06 3.94425E-06
2233.00000 22479.300 0.495 -37.469 0.341 -0.610 -2.786 -0.005 6.86600E-06 6.29857E-06 3.95161E-06
2233.00000 22479.400 0.434 -37.754 0.343 -0.620 -2.923 0.003 6.89712E-06 6.32599E-06 3.95897E-06
2233.00000 22479.500 0.371 -38.054 0.344 -0.637 -3.067 0.010 6.92821E-06 6.35344E-06 3.96632E-06
2233.00000 22479.600 0.306 -38.367 0.344 -0.659 -3.196 0.002 6.95927E-06 6.38094E-06 3.97366E-06
2233.00000 22479.700 0.239 -38.693 0.345 -0.656 -3.314 0.008 6.99030E-06 6.40846E-06 3.98101E-06
2233.00000 22479.800 0.173 -39.030 0.347 -0.643 -3.421 0.023 7.02129E-06 6.43603E-06 3.98835E-06
2233.00000 22479.900 0.108 -39.378 0.349 -0.649 -3.528 0.015 7.05225E-06 6.46363E-06 3.99569E-06
2233.00000 22480.000 0.042 -39.736 0.352 -0.674 -3.628 0.014 7.08318E-06 6.49126E-06 4.00302E-06
2233.00000 22480.100 -0.027 -40.103 0.353 -0.684 -3.722 0.007 7.09404E-06 6.51679E-06 4.00201E-06
2233.00000 22480.200 -0.094 -40.482 0.354 -0.684 -3.842 0.014 7.10487E-06 6.54236E-06 4.00099E-06
2233.00000 22480.300 -0.162 -40.870 0.355 -0.693 -3.922 0.008 7.11567E-06 6.56796E-06 3.99996E-06
2233.00000 22480.400 -0.231 -41.266 0.355 -0.700 -4.013 -0.005 7.12644E-06 6.59360E-06 3.99893E-06
2233.00000 22480.500 -0.302 -41.674 0.355 -0.703 -4.131 0.001 7.13717E-06 6.61927E-06 3.99790E-06
2233.00000 22480.600 -0.371 -42.093 0.357 -0.701 -4.233 0.026 7.14787E-06 6.64499E-06 3.99686E-06
2233.00000 22480.700 -0.442 -42.521 0.359 -0.683 -4.329 0.009 7.15855E-06 6.67073E-06 3.99581E-06
2233.00000 22480.800 -0.513 -42.958 0.363 -0.732 -4.389 0.034 7.16918E-06 6.69652E-06 3.99477E-06
2233.00000 22480.900 -0.586 -43.402 0.366 -0.721 -4.490 0.030 7.17979E-06 6.72234E-06 3.99371E-06
2233.00000 22481.000 -0.659 -43.859 0.368 -0.729 -4.618 0.010 7.19037E-06 6.74820E-06 3.99265E-06
2233.00000 22481.100 -0.730 -44.326 0.368 -0.714 -4.738 0.003 7.18827E-06 6.76744E-06 3.98842E-06
2233.00000 22481.200 -0.802 -44.806 0.368 -0.731 -4.836 0.002 7.18616E-06 6.78669E-06 3.98419E-06
2233.00000 22481.300 -0.873 -45.294 0.369 -0.715 -4.932 0.012 7.18405E-06 6.80595E-06 3.97995E-06
2233.00000 22481.400 -0.949 -45.793 0.374 -0.787 -5.051 0.039 7.18192E-06 6.82522E-06 3.97571E-06
2233.00000 22481.500 -1.027 -46.301 0.377 -0.804 -5.103 0.032 7.17978E-06 6.84451E-06 3.97147E-06
2233.00000 22481.600 -1.109 -46.813 0.378 -0.799 -5.131 0.021 7.17764E-06 6.86381E-06 3.96722E-06
2233.00000 22481.700 -1.188 -47.331 0.379 -0.781 -5.212 0.010 7.17548E-06 6.88312E-06 3.96297E-06
2233.00000 22481.800 -1.268 -47.858 0.382 -0.783 -5.314 0.023 7.17331E-06 6.90244E-06 3.95872E-06
2233.00000 22481.900 -1.348 -48.391 0.385 -0.791 -5.343 0.018 7.17113E-06 6.92178E-06 3.95447E-06
2233.00000 22482.000 -1.424 -48.926 0.387 -0.754 -5.353 0.009 7.16895E-06 6.94113E-06 3.95022E-06
2233.00000 22482.100 -1.505 -49.463 0.388 -0.851 -5.365 0.023 7.15493E-06 6.94899E-06 3.94515E-06
2233.00000 22482.200 -1.583 -50.000 0.389 -0.787 -5.363 0.024 7.14092E-06 6.95685E-06 3.94009E-06
2233.00000 22482.300 -1.661 -50.535 0.391 -0.761 -5.349 -0.011 7.12691E-06 6.96471E-06 3.93502E-06
2233.00000 22482.400 -1.737 -51.069 0.393 -0.761 -5.335 -0.003 7.11290E-06 6.97256E-06 3.92996E-06
2233.00000 22482.500 -1.811 -51.602 0.395 -0.733 -5.324 0.027 7.09889E-06 6.98041E-06 3.92490E-06
2233.00000 22482.600 -1.889 -52.132 0.395 -0.808 -5.286 -0.048 7.08489E-06 6.98825E-06 3.91983E-06
2233.00000 22482.700 -1.969 -52.663 0.397 -0.782 -5.344 -0.004 7.07090E-06 6.99609E-06 3.91477E-06
2233.00000 22482.800 -2.045 -53.195 0.400 -0.742 -5.290 0.017 7.05690E-06 7.00393E-06 3.90971E-06
2233.00000 22482.900 -2.122 -53.722 0.401 -0.767 -5.253 0.031 7.04291E-06 7.01176E-06 3.90465E-06
2233.00000 22483.000 -2.200 -54.249 0.402 -0.794 -5.252 0.019 7.02893E-06 7.01958E-06 3.89959E-06
2233.00000 22483.100 -2.278 -54.773 0.403 -0.773 -5.226 0.005 7.00924E-06 7.02334E-06 3.89463E-06
2233.00000 22483.200 -2.357 -55.295 0.404 -0.792 -5.211 0.009 6.98955E-06 7.02709E-06 3.88967E-06
2233.00000 22483.300 -2.436 -55.815 0.405 -0.836 -5.186 0.011 6.96987E-06 7.03083E-06 3.88471E-06
2233.00000 22483.400 -2.522 -56.333 0.407 -0.872 -5.171 0.001 6.95019E-06 7.03458E-06 3.87976E-06
2233.00000 22483.500 -2.610 -56.850 0.409 -0.888 -5.189 0.003 6.93051E-06 7.03831E-06 3.87480E-06
2233.00000 22483.600 -2.700 -57.371 0.411 -0.908 -5.233 0.041 6.91084E-06 7.04204E-06 3.86985E-06
2233.00000 22483.700 -2.792 -57.898 0.416 -0.937 -5.304 0.057 6.89117E-06 7.04577E-06 3.86489E-06
2233.00000 22483.800 -2.888 -58.432 0.422 -0.973 -5.364 0.059 6.87150E-06 7.04949E-06 3.85994E-06
2233.00000 22483.900 -2.988 -58.972 0.426 -1.004 -5.418 0.051 6.85184E-06 7.05321E-06 3.85499E-06
2233.00000 22484.000 -3.090 -59.518 0.430 -1.055 -5.477 0.029 6.83218E-06 7.05692E-06 3.85004E-06
2233.00000 22484.100 -3.196 -60.070 0.433 -1.088 -5.576 0.045 6.80578E-06 7.06017E-06 3.84431E-06
2233.00000 22484.200 -3.304 -60.631 0.436 -1.095 -5.660 0.025 6.77940E-06 7.06340E-06 3.83858E-06
2233.00000 22484.300 -3.415 -61.201 0.439 -1.103 -5.748 0.024 6.75303E-06 7.06662E-06 3.83285E-06
2233.00000 22484.400 -3.525 -61.780 0.442 -1.107 -5.816 0.002 6.72668E-06 7.06981E-06 3.82712E-06
2233.00000 22484.500 -3.637 -62.364 0.446 -1.129 -5.877 0.047 6.70035E-06 7.07299E-06 3.82140E-06
2233.00000 22484.600 -3.752 -62.955 0.450 -1.158 -5.926 0.036 6.67403E-06 7.07614E-06 3.81567E-06
2233.00000 22484.700 -3.868 -63.550 0.453 -1.168 -5.957 0.023 6.64773E-06 7.07928E-06 3.80995E-06
2233.00000 22484.800 -3.986 -64.147 0.456 -1.193 -5.986 0.028 6.62145E-06 7.08240E-06 3.80424E-06
2233.00000 22484.900 -4.107 -64.747 0.458 -1.198 -6.000 0.027 6.59519E-06 7.08550E-06 3.79852E-06
2233.00000 22485.000 -4.226 -65.347 0.463 -1.181 -5.999 0.046 6.56894E-06 7.08858E-06 3.79280E-06
2233.00000 22485.100 -4.342 -65.946 0.467 -1.171 -5.974 0.006 6.54498E-06 7.09024E-06 3.78655E-06
2233.00000 22485.200 -4.460 -66.540 0.468 -1.222 -5.912 0.032 6.52104E-06 7.09188E-06 3.78029E-06
2233.00000 22485.300 -4.584 -67.130 0.470 -1.237 -5.890 0.017 6.49712E-06 7.09350E-06 3.77404E-06
2233.00000 22485.400 -4.707 -67.721 0.472 -1.239 -5.921 0.013 6.47322E-06 7.09509E-06 3.76779E-06
2233.00000 22485.500 -4.830 -68.312 0.474 -1.222 -5.903 -0.006 6.44934E-06 7.09665E-06 3.76154E-06
2233.00000 22485.600 -4.952 -68.902 0.473 -1.236 -5.901 -0.004 6.42549E-06 7.09819E-06 3.75529E-06
2233.00000 22485.700 -5.081 -69.492 0.475 -1.292 -5.902 0.007 6.40166E-06 7.09971E-06 3.74905E-06
2233.00000 22485.800 -5.210 -70.084 0.476 -1.315 -5.907 -0.020 6.37785E-06 7.10120E-06 3.74280E-06
2233.00000 22485.900 -5.343 -70.675 0.475 -1.319 -5.919 -0.024 6.35407E-06 7.10267E-06 3.73656E-06
2233.00000 22486.000 -5.476 -71.268 0.473 -1.354 -5.944 -0.011 6.33030E-06 7.10411E-06 3.73033E-06
2233.00000 22486.100 -5.614 -71.865 0.472 -1.392 -5.990 -0.020 6.31145E-06 7.09985E-06 3.72346E-06
2233.00000 22486.200 -5.754 -72.465 0.471 -1.435 -6.003 0.005 6.29261E-06 7.09558E-06 3.71659E-06
2233.00000 22486.300 -5.900 -73.066 0.470 -1.513 -6.018 -0.011 6.27377E-06 7.09132E-06 3.70972E-06
2233.00000 22486.400 -6.054 -73.671 0.467 -1.563 -6.070 -0.024 6.25493E-06 7.08704E-06 3.70286E-06
2233.00000 22486.500 -6.211 -74.280 0.464 -1.594 -6.089 -0.032 6.23610E-06 7.08277E-06 3.69599E-06
2233.00000 22486.600 -6.370 -74.888 0.461 -1.571 -6.080 -0.014 6.21726E-06 7.07849E-06 3.68913E-06
2233.00000 22486.700 -6.529 -75.493 0.462 -1.629 -5.993 0.008 6.19843E-06 7.07421E-06 3.68227E-06
2233.00000 22486.800 -6.694 -76.091 0.463 -1.626 -5.975 0.005 6.17961E-06 7.06992E-06 3.67541E-06
2233.00000 22486.900 -6.862 -76.690 0.460 -1.733 -5.971 -0.048 6.16078E-06 7.06563E-06 3.66855E-06
2233.00000 22487.000 -7.032 -77.287 0.454 -1.714 -5.962 -0.045 6.14196E-06 7.06134E-06 3.66169E-06
2233.00000 22487.100 -7.199 -77.881 0.454 -1.613 -5.931 0.050 6.12643E-06 7.05354E-06 3.65577E-06
2233.00000 22487.200 -7.358 -78.475 0.460 -1.570 -5.907 0.022 6.11090E-06 7.04575E-06 3.64984E-06
2233.00000 22487.300 -7.515 -79.060 0.463 -1.671 -5.788 -0.022 6.09537E-06 7.03797E-06 3.64391E-06
2233.00000 22487.400 -7.687 -79.638 0.463 -1.751 -5.801 0.021 6.07982E-06 7.03019E-06 3.63798E-06
2233.00000 22487.500 -7.866 -80.217 0.465 -1.779 -5.813 0.058 6.06427E-06 7.02243E-06 3.63205E-06
2233.00000 22487.600 -8.036 -80.804 0.471 -1.677 -5.851 0.062 6.04872E-06 7.01467E-06 3.62612E-06
2233.00000 22487.700 -8.198 -81.387 0.476 -1.592 -5.792 0.045 6.03316E-06 7.00691E-06 3.62019E-06
2233.00000 22487.800 -8.363 -81.963 0.481 -1.694 -5.723 0.034 6.01759E-06 6.99917E-06 3.61426E-06
2233.00000 22487.900 -8.536 -82.535 0.485 -1.779 -5.714 0.019 6.00202E-06 6.99143E-06 3.60833E-06
2233.00000 22488.000 -8.718 -83.104 0.487 -1.806 -5.686 0.023 5.98644E-06 6.98370E-06 3.60239E-06
2233.00000 22488.100 -8.896 -83.672 0.491 -1.723 -5.680 0.055 5.97261E-06 6.97590E-06 3.59791E-06
2233.00000 22488.200 -9.064 -84.242 0.496 -1.680 -5.666 0.073 5.95877E-06 6.96810E-06 3.59343E-06
2233.00000 22488.300 -9.230 -84.807 0.500 -1.674 -5.636 0.040 5.94493E-06 6.96030E-06 3.58894E-06
2233.00000 22488.400 -9.403 -85.369 0.502 -1.771 -5.617 -0.002 5.93109E-06 6.95251E-06 3.58446E-06
2233.00000 22488.500 -9.577 -85.933 0.501 -1.748 -5.659 0.011 5.91725E-06 6.94472E-06 3.57997E-06
2233.00000 22488.600 -9.752 -86.501 0.507 -1.730 -5.689 0.074 5.90340E-06 6.93693E-06 3.57548E-06
2233.00000 22488.700 -9.925 -87.071 0.513 -1.709 -5.694 0.039 5.88956E-06 6.92915E-06 3.57100E-06
2233.00000 22488.800 -10.096 -87.638 0.516 -1.719 -5.655 0.017 5.87571E-06 6.92137E-06 3.56651E-06
2233.00000 22488.900 -10.266 -88.204 0.517 -1.662 -5.643 -0.001 5.86185E-06 6.91359E-06 3.56202E-06
2233.00000 22489.000 -10.432 -88.768 0.517 -1.679 -5.657 0.037 5.84800E-06 6.90582E-06 3.55753E-06
2233.00000 22489.100 -10.600 -89.335 0.521 -1.686 -5.640 0.063 5.83516E-06 6.89591E-06 3.55454E-06
2233.00000 22489.200 -10.769 -89.897 0.525 -1.693 -5.601 0.034 5.82232E-06 6.88601E-06 3.55156E-06
2233.00000 22489.300 -10.938 -90.456 0.527 -1.703 -5.594 -0.008 5.80948E-06 6.87611E-06 3.54857E-06
2233.00000 22489.400 -11.108 -91.014 0.528 -1.696 -5.589 -0.013 5.79663E-06 6.86622E-06 3.54558E-06
2233.00000 22489.500 -11.277 -91.572 0.529 -1.663 -5.552 0.017 5.78378E-06 6.85634E-06 3.54259E-06
2233.00000 22489.600 -11.440 -92.127 0.533 -1.626 -5.543 0.048 5.77093E-06 6.84645E-06 3.53960E-06
2233.00000 22489.700 -11.602 -92.681 0.537 -1.609 -5.522 0.032 5.75807E-06 6.83658E-06 3.53660E-06
2233.00000 22489.800 -11.765 -93.231 0.542 -1.652 -5.455 0.023 5.74521E-06 6.82671E-06 3.53360E-06
2233.00000 22489.900 -11.933 -93.774 0.544 -1.682 -5.428 0.016 5.73235E-06 6.81685E-06 3.53060E-06
2233.00000 22490.000 -12.100 -94.318 0.545 -1.656 -5.444 0.018 5.71948E-06 6.80699E-06 3.52760E-06
2233.00000 22490.100 -12.265 -94.862 0.548 -1.645 -5.415 0.031 5.70593E-06 6.79492E-06 3.52526E-06
2233.00000 22490.200 -12.428 -95.400 0.552 -1.631 -5.352 0.025 5.69237E-06 6.78285E-06 3.52291E-06
2233.00000 22490.300 -12.593 -95.933 0.556 -1.653 -5.297 0.059 5.67880E-06 6.77079E-06 3.52057E-06
2233.00000 22490.400 -12.758 -96.460 0.562 -1.647 -5.246 0.046 5.66524E-06 6.75873E-06 3.51822E-06
2233.00000 22490.500 -12.921 -96.982 0.566 -1.612 -5.209 0.031 5.65167E-06 6.74669E-06 3.51587E-06
2233.00000 22490.600 -13.085 -97.500 0.571 -1.666 -5.153 0.046 5.63810E-06 6.73465E-06 3.51351E-06
2233.00000 22490.700 -13.252 -98.015 0.576 -1.664 -5.146 0.051 5.62452E-06 6.72261E-06 3.51115E-06
2233.00000 22490.800 -13.417 -98.529 0.581 -1.607 -5.124 0.045 5.61094E-06 6.71058E-06 3.50879E-06
2233.00000 22490.900 -13.577 -99.039 0.586 -1.597 -5.064 0.040 5.59736E-06 6.69856E-06 3.50643E-06
2233.00000 22491.000 -13.738 -99.543 0.592 -1.627 -5.012 0.054 5.58377E-06 6.68655E-06 3.50406E-06
2233.00000 22491.100 -13.902 -100.043 0.597 -1.659 -4.976 0.044 5.56933E-06 6.67300E-06 3.50182E-06
2233.00000 22491.200 -14.066 -100.538 0.602 -1.607 -4.933 0.032 5.55488E-06 6.65946E-06 3.49957E-06
2233.00000 22491.300 -14.224 -101.029 0.604 -1.553 -4.886 0.019 5.54044E-06 6.64592E-06 3.49732E-06
2233.00000 22491.400 -14.377 -101.516 0.607 -1.537 -4.851 0.028 5.52599E-06 6.63240E-06 3.49507E-06
2233.00000 22491.500 -14.531 -101.999 0.611 -1.533 -4.809 0.028 5.51154E-06 6.61887E-06 3.49281E-06
2233.00000 22491.600 -14.684 -102.477 0.612 -1.507 -4.755 0.007 5.49708E-06 6.60535E-06 3.49055E-06
2233.00000 22491.700 -14.832 -102.951 0.614 -1.482 -4.719 0.010 5.48263E-06 6.59184E-06 3.48829E-06
2233.00000 22491.800 -14.983 -103.421 0.616 -1.502 -4.674 0.019 5.46817E-06 6.57834E-06 3.48602E-06
2233.00000 22491.900 -15.133 -103.887 0.618 -1.517 -4.618 0.013 5.45371E-06 6.56484E-06 3.48375E-06
2233.00000 22492.000 -15.284 -104.347 0.620 -1.487 -4.585 0.016 5.43924E-06 6.55135E-06 3.48147E-06
2233.00000 22492.100 -15.432 -104.804 0.622 -1.439 -4.560 0.013 5.42312E-06 6.53489E-06 3.47934E-06
2233.00000 22492.200 -15.571 -105.257 0.625 -1.367 -4.513 0.018 5.40699E-06 6.51844E-06 3.47720E-06
2233.00000 22492.300 -15.708 -105.706 0.628 -1.366 -4.446 0.030 5.39086E-06 6.50200E-06 3.47506E-06
2233.00000 22492.400 -15.847 -106.145 0.631 -1.424 -4.352 0.019 5.37472E-06 6.48557E-06 3.47290E-06
2233.00000 22492.500 -15.988 -106.579 0.634 -1.371 -4.312 0.038 5.35858E-06 6.46915E-06 3.47075E-06
2233.00000 22492.600 -16.126 -107.007 0.641 -1.342 -4.248 0.066 5.34244E-06 6.45273E-06 3.46858E-06
2233.00000 22492.700 -16.255 -107.429 0.649 -1.299 -4.214 0.057 5.32629E-06 6.43633E-06 3.46641E-06
2233.00000 22492.800 -16.385 -107.849 0.658 -1.290 -4.178 0.048 5.31014E-06 6.41994E-06 3.46424E-06
2233.00000 22492.900 -16.516 -108.265 0.663 -1.346 -4.136 0.052 5.29399E-06 6.40355E-06 3.46206E-06
2233.00000 22493.000 -16.653 -108.676 0.667 -1.405 -4.053 0.025 5.27783E-06 6.38717E-06 3.45987E-06
2233.00000 22493.100 -16.795 -109.078 0.668 -1.412 -4.023 0.055 5.25981E-06 6.36810E-06 3.45709E-06
2233.00000 22493.200 -16.932 -109.480 0.674 -1.304 -4.009 0.071 5.24179E-06 6.34904E-06 3.45429E-06
2233.00000 22493.300 -17.055 -109.878 0.684 -1.200 -3.921 0.138 5.22376E-06 6.32998E-06 3.45150E-06
2233.00000 22493.400 -17.172 -110.266 0.695 -1.156 -3.816 0.100 5.20572E-06 6.31095E-06 3.44869E-06
2233.00000 22493.500 -17.289 -110.644 0.702 -1.196 -3.756 0.047 5.18768E-06 6.29192E-06 3.44587E-06
2233.00000 22493.600 -17.411 -111.015 0.704 -1.259 -3.661 0.017 5.16964E-06 6.27291E-06 3.44305E-06
2233.00000 22493.700 -17.537 -111.378 0.707 -1.263 -3.599 0.026 5.15159E-06 6.25390E-06 3.44022E-06
2233.00000 22493.800 -17.659 -111.736 0.711 -1.173 -3.535 0.051 5.13354E-06 6.23491E-06 3.43738E-06
2233.00000 22493.900 -17.772 -112.086 0.718 -1.083 -3.467 0.102 5.11548E-06 6.21594E-06 3.43453E-06
2233.00000 22494.000 -17.878 -112.430 0.729 -1.038 -3.428 0.125 5.09742E-06 6.19697E-06 3.43168E-06
2233.00000 22494.100 -17.981 -112.771 0.740 -1.047 -3.359 0.071 5.07699E-06 6.17515E-06 3.42847E-06
2233.00000 22494.200 -18.089 -113.100 0.746 -1.108 -3.244 0.025 5.05656E-06 6.15335E-06 3.42525E-06
2233.00000 22494.300 -18.199 -113.421 0.747 -1.121 -3.175 -0.001 5.03612E-06 6.13157E-06 3.42202E-06
2233.00000 22494.400 -18.312 -113.735 0.750 -1.107 -3.109 0.037 5.01568E-06 6.10979E-06 3.41878E-06
2233.00000 22494.500 -18.418 -114.043 0.755 -1.018 -3.057 0.063 4.99524E-06 6.08804E-06 3.41552E-06
2233.00000 22494.600 -18.516 -114.346 0.761 -0.960 -3.000 0.065 4.97479E-06 6.06630E-06 3.41226E-06
2233.00000 22494.700 -18.611 -114.643 0.768 -0.932 -2.926 0.082 4.95434E-06 6.04457E-06 3.40898E-06
2233.00000 22494.800 -18.704 -114.932 0.776 -0.929 -2.830 0.068 4.93388E-06 6.02286E-06 3.40569E-06
2233.00000 22494.900 -18.796 -115.209 0.782 -0.925 -2.731 0.043 4.91342E-06 6.00117E-06 3.40239E-06
2233.00000 22495.000 -18.889 -115.477 0.785 -0.929 -2.630 0.038 4.89296E-06 5.97949E-06 3.39908E-06
2233.00000 22495.100 -18.980 -115.737 0.789 -0.885 -2.567 0.042 4.87493E-06 5.95289E-06 3.39410E-06
2233.00000 22495.200 -19.065 -115.991 0.792 -0.835 -2.498 0.029 4.85688E-06 5.92633E-06 3.38911E-06
2233.00000 22495.300 -19.147 -116.237 0.795 -0.809 -2.428 0.020 4.83879E-06 5.89981E-06 3.38411E-06
2233.00000 22495.400 -19.227 -116.476 0.798 -0.794 -2.353 0.023 4.82068E-06 5.87332E-06 3.37910E-06
2233.00000 22495.500 -19.304 -116.708 0.801 -0.747 -2.275 0.033 4.80253E-06 5.84688E-06 3.37409E-06
2233.00000 22495.600 -19.378 -116.934 0.804 -0.742 -2.224 0.023 4.78435E-06 5.82048E-06 3.36906E-06
2233.00000 22495.700 -19.453 -117.153 0.806 -0.724 -2.164 0.024 4.76614E-06 5.79412E-06 3.36403E-06
2233.00000 22495.800 -19.524 -117.367 0.808 -0.702 -2.094 0.031 4.74790E-06 5.76779E-06 3.35899E-06
2233.00000 22495.900 -19.593 -117.573 0.811 -0.698 -2.038 0.015 4.72963E-06 5.74151E-06 3.35394E-06
2233.00000 22496.000 -19.664 -117.774 0.812 -0.696 -1.976 0.006 4.71132E-06 5.71526E-06 3.34888E-06
2233.00000 22496.100 -19.730 -117.968 0.814 -0.631 -1.912 0.019 4.69091E-06 5.68690E-06 3.34284E-06
2233.00000 22496.200 -19.791 -118.157 0.817 -0.588 -1.854 0.026 4.67046E-06 5.65857E-06 3.33679E-06
2233.00000 22496.300 -19.848 -118.342 0.819 -0.568 -1.825 0.010 4.64998E-06 5.63029E-06 3.33073E-06
2233.00000 22496.400 -19.906 -118.521 0.820 -0.582 -1.753 0.015 4.62946E-06 5.60205E-06 3.32466E-06
2233.00000 22496.500 -19.963 -118.693 0.822 -0.570 -1.681 0.018 4.60892E-06 5.57385E-06 3.31858E-06
2233.00000 22496.600 -20.018 -118.857 0.823 -0.545 -1.621 0.013 4.58834E-06 5.54570E-06 3.31249E-06
2233.00000 22496.700 -20.072 -119.017 0.825 -0.515 -1.570 0.005 4.56773E-06 5.51758E-06 3.30639E-06
2233.00000 22496.800 -20.122 -119.172 0.826 -0.486 -1.509 0.015 4.54708E-06 5.48951E-06 3.30028E-06
2233.00000 22496.900 -20.170 -119.320 0.827 -0.470 -1.440 0.021 4.52640E-06 5.46149E-06 3.29416E-06
2233.00000 22497.000 -20.216 -119.461 0.828 -0.463 -1.370 0.008 4.50569E-06 5.43350E-06 3.28803E-06
2233.00000 22497.100 -20.261 -119.594 0.829 -0.438 -1.301 0.001 4.48312E-06 5.40300E-06 3.28051E-06
2233.00000 22497.200 -20.303 -119.722 0.830 -0.394 -1.236 0.008 4.46051E-06 5.37254E-06 3.27298E-06
2233.00000 22497.300 -20.341 -119.842 0.831 -0.369 -1.171 0.013 4.43787E-06 5.34214E-06 3.26544E-06
2233.00000 22497.400 -20.377 -119.955 0.832 -0.362 -1.097 0.016 4.41518E-06 5.31178E-06 3.25788E-06
2233.00000 22497.500 -20.413 -120.061 0.833 -0.356 -1.014 0.001 4.39246E-06 5.28147E-06 3.25031E-06
2233.00000 22497.600 -20.449 -120.160 0.833 -0.346 -0.949 -0.005 4.36971E-06 5.25121E-06 3.24273E-06
2233.00000 22497.700 -20.481 -120.252 0.834 -0.317 -0.896 0.016 4.34691E-06 5.22100E-06 3.23514E-06
2233.00000 22497.800 -20.511 -120.339 0.834 -0.281 -0.836 0.017 4.32409E-06 5.19084E-06 3.22754E-06
2233.00000 22497.900 -20.538 -120.419 0.835 -0.246 -0.770 0.000 4.30122E-06 5.16073E-06 3.21993E-06
2233.00000 22498.000 -20.561 -120.494 0.836 -0.222 -0.703 -0.003 4.27832E-06 5.13066E-06 3.21230E-06
2233.00000 22498.100 -20.582 -120.561 0.837 -0.205 -0.631 0.011 4.25340E-06 5.09861E-06 3.20274E-06
2233.00000 22498.200 -20.601 -120.620 0.838 -0.186 -0.560 0.006 4.22845E-06 5.06661E-06 3.19316E-06
2233.00000 22498.300 -20.619 -120.673 0.838 -0.164 -0.495 -0.003 4.20346E-06 5.03466E-06 3.18358E-06
2233.00000 22498.400 -20.635 -120.720 0.839 -0.138 -0.434 -0.002 4.17843E-06 5.00276E-06 3.17398E-06
2233.00000 22498.500 -20.647 -120.760 0.839 -0.121 -0.375 0.006 4.15337E-06 4.97091E-06 3.16437E-06
2233.00000 22498.600 -20.658 -120.795 0.840 -0.106 -0.319 0.015 4.12826E-06 4.93911E-06 3.15474E-06
2233.00000 22498.700 -20.668 -120.824 0.840 -0.088 -0.256 0.004 4.10312E-06 4.90735E-06 3.14510E-06
2233.00000 22498.800 -20.677 -120.847 0.840 -0.068 -0.197 -0.001 4.07794E-06 4.87565E-06 3.13545E-06
2233.00000 22498.900 -20.682 -120.865 0.842 -0.046 -0.151 0.002 4.05273E-06 4.84400E-06 3.12579E-06
2233.00000 22499.000 -20.687 -120.878 0.842 -0.031 -0.106 0.004 4.02748E-06 4.81240E-06 3.11612E-06
2233.00000 22499.100 -20.689 -120.886 0.842 -0.024 -0.063 0.006 3.99972E-06 4.78030E-06 3.10366E-06
2233.00000 22499.200 -20.690 -120.891 0.843 -0.013 -0.026 0.007 3.97194E-06 4.74823E-06 3.09118E-06
2233.00000 22499.300 -20.690 -120.893 0.843 0.002 0.008 0.004 3.94413E-06 4.71619E-06 3.07871E-06
2233.00000 22499.400 -20.690 -120.890 0.843 0.008 0.013 -0.001 3.91630E-06 4.68419E-06 3.06622E-06
2233.00000 22499.500 -20.689 -120.891 0.844 0.000 -0.011 0.007 3.88844E-06 4.65222E-06 3.05373E-06
2233.00000 22499.600 -20.690 -120.892 0.845 -0.002 -0.006 -0.001 3.86055E-06 4.62029E-06 3.04122E-06
2233.00000 22499.700 -20.690 -120.892 0.845 -0.002 0.010 0.003 3.83263E-06 4.58839E-06 3.02872E-06
2233.00000 22499.800 -20.690 -120.892 0.846 -0.004 -0.005 0.007 3.80469E-06 4.55652E-06 3.01620E-06
2233.00000 22499.900 -20.691 -120.893 0.846 -0.003 -0.009 0.003 3.77672E-06 4.52470E-06 3.00367E-06
2233.00000 22500.000 -20.691 -120.893 0.846 0.000 0.003 0.007 3.74872E-06 4.49290E-06 2.99114E-06
2233.00000 22500.100 -20.691 -120.894 0.847 0.002 0.003 0.001 3.71847E-06 4.45978E-06 2.97567E-06
2233.00000 22500.200 -20.691 -120.894 0.847 -0.001 -0.004 -0.000 3.68820E-06 4.42669E-06 2.96019E-06
2233.00000 22500.300 -20.692 -120.895 0.847 -0.002 -0.001 0.002 3.65791E-06 4.39362E-06 2.94471E-06
2233.00000 22500.400 -20.692 -120.894 0.848 -0.003 0.001 0.006 3.62759E-06 4.36057E-06 2.92923E-06
2233.00000 22500.500 -20.691 -120.895 0.849 -0.004 -0.005 0.007 3.59726E-06 4.32755E-06 2.91374E-06
2233.00000 22500.600 -20.691 -120.895 0.849 -0.003 -0.003 0.005 3.56690E-06 4.29455E-06 2.89826E-06
2233.00000 22500.700 -20.691 -120.895 0.849 0.000 0.001 0.001 3.53652E-06 4.26157E-06 2.88277E-06
2233.00000 22500.800 -20.691 -120.895 0.849 0.001 -0.002 0.001 3.50612E-06 4.22861E-06 2.86729E-06
2233.00000 22500.900 -20.691 -120.895 0.848 -0.000 -0.000 0.001 3.47570E-06 4.19568E-06 2.85180E-06
2233.00000 22501.000 -20.691 -120.895 0.848 -0.003 0.000 0.004 3.44526E-06 4.16277E-06 2.83631E-06
2233.00000 22501.100 -20.691 -120.895 0.848 -0.005 -0.002 0.006 3.41400E-06 4.13484E-06 2.82181E-06
2233.00000 22501.200 -20.691 -120.895 0.848 -0.004 -0.005 0.005 3.38278E-06 4.10689E-06 2.80730E-06
2233.00000 22501.300 -20.690 -120.895 0.847 -0.001 -0.000 0.005 3.35160E-06 4.07890E-06 2.79279E-06
2233.00000 22501.400 -20.689 -120.895 0.847 0.003 0.001 0.001 3.32045E-06 4.05088E-06 2.77828E-06
2233.00000 22501.500 -20.689 -120.895 0.847 0.004 -0.002 -0.000 3.28934E-06 4.02282E-06 2.76377E-06
2233.00000 22501.600 -20.689 -120.895 0.847 -0.001 -0.002 0.002 3.25826E-06 3.99474E-06 2.74925E-06
2233.00000 22501.700 -20.689 -120.895 0.847 -0.008 -0.000 0.004 3.22722E-06 3.96662E-06 2.73472E-06
2233.00000 22501.800 -20.689 -120.895 0.847 -0.008 -0.002 0.009 3.19622E-06 3.93847E-06 2.72019E-06
2233.00000 22501.900 -20.689 -120.895 0.847 0.002 -0.004 0.005 3.16525E-06 3.91029E-06 2.70566E-06
2233.00000 22502.000 -20.689 -120.895 0.847 0.006 -0.002 0.001 3.13432E-06 3.88207E-06 2.69113E-06
2233.00000 22502.100 -20.689 -120.895 0.847 0.000 0.001 -0.000 3.11304E-06 3.84399E-06 2.67763E-06
2233.00000 22502.200 -20.689 -120.895 0.846 -0.006 -0.001 0.000 3.09165E-06 3.80605E-06 2.66411E-06
2233.00000 22502.300 -20.688 -120.895 0.847 -0.004 -0.002 0.006 3.07015E-06 3.76823E-06 2.65057E-06
2233.00000 22502.400 -20.688 -120.895 0.847 -0.003 -0.004 0.008 3.04853E-06 3.73055E-06 2.63701E-06
2233.00000 22502.500 -20.688 -120.894 0.846 -0.004 -0.003 0.003 3.02680E-06 3.69301E-06 2.62343E-06
2233.00000 22502.600 -20.688 -120.894 0.846 -0.001 -0.001 0.002 3.00495E-06 3.65560E-06 2.60984E-06
2233.00000 22502.700 -20.686 -120.894 0.845 0.004 0.000 -0.001 2.98298E-06 3.61832E-06 2.59622E-06
2233.00000 22502.800 -20.685 -120.894 0.845 0.001 -0.001 0.001 2.96090E-06 3.58118E-06 2.58259E-06
2233.00000 22502.900 -20.685 -120.893 0.844 -0.005 -0.003 0.007 2.93871E-06 3.54417E-06 2.56893E-06
2233.00000 22503.000 -20.683 -120.893 0.844 -0.006 -0.003 0.007 2.91640E-06 3.50730E-06 2.55526E-06
2233.00000 22503.100 -20.682 -120.893 0.844 -0.003 -0.002 0.003 2.90236E-06 3.48153E-06 2.54570E-06
2233.00000 22503.200 -20.682 -120.894 0.843 0.003 -0.000 0.000 2.88828E-06 3.45583E-06 2.53613E-06
2233.00000 22503.300 -20.682 -120.894 0.843 0.002 0.000 -0.000 2.87413E-06 3.43020E-06 2.52656E-06
2233.00000 22503.400 -20.682 -120.894 0.843 -0.003 -0.001 0.002 2.85993E-06 3.40463E-06 2.51697E-06
2233.00000 22503.500 -20.682 -120.894 0.843 -0.004 -0.001 0.005 2.84567E-06 3.37913E-06 2.50737E-06
2233.00000 22503.600 -20.682 -120.894 0.843 -0.003 -0.003 0.005 2.83136E-06 3.35369E-06 2.49777E-06
2233.00000 22503.700 -20.682 -120.894 0.843 -0.002 -0.002 0.006 2.81699E-06 3.32832E-06 2.48816E-06
2233.00000 22503.800 -20.682 -120.894 0.843 0.001 -0.000 0.003 2.80256E-06 3.30302E-06 2.47853E-06
2233.00000 22503.900 -20.682 -120.894 0.843 0.002 0.000 -0.004 2.78807E-06 3.27778E-06 2.46890E-06
2233.00000 22504.000 -20.682 -120.894 0.843 -0.001 -0.001 -0.001 2.77353E-06 3.25260E-06 2.45926E-06
2233.00000 22504.100 -20.682 -120.894 0.843 -0.004 -0.002 0.003 2.76325E-06 3.23419E-06 2.45298E-06
2233.00000 22504.200 -20.682 -120.894 0.843 -0.005 -0.003 0.009 2.75294E-06 3.21582E-06 2.44669E-06
2233.00000 22504.300 -20.681 -120.893 0.842 -0.003 -0.003 0.005 2.74261E-06 3.19747E-06 2.44039E-06
2233.00000 22504.400 -20.681 -120.894 0.842 0.002 0.001 -0.001 2.73225E-06 3.17917E-06 2.43409E-06
2233.00000 22504.500 -20.681 -120.894 0.842 0.004 0.001 0.000 2.72187E-06 3.16089E-06 2.42777E-06
2233.00000 22504.600 -20.681 -120.894 0.842 -0.002 -0.002 0.001 2.71146E-06 3.14266E-06 2.42144E-06
2233.00000 22504.700 -20.681 -120.893 0.842 -0.005 -0.002 0.006 2.70103E-06 3.12445E-06 2.41511E-06
2233.00000 22504.800 -20.682 -120.894 0.843 -0.005 -0.003 0.006 2.69057E-06 3.10628E-06 2.40877E-06
2233.00000 22504.900 -20.682 -120.894 0.843 -0.002 -0.003 0.003 2.68008E-06 3.08815E-06 2.40241E-06
2233.00000 22505.000 -20.682 -120.894 0.843 0.001 -0.000 0.000 2.66957E-06 3.07005E-06 2.39605E-06
2233.00000 22505.100 -20.682 -120.894 0.843 0.002 0.001 -0.001 2.66242E-06 3.05625E-06 2.39174E-06
2233.00000 22505.200 -20.681 -120.894 0.842 -0.000 -0.000 0.001 2.65527E-06 3.04247E-06 2.38743E-06
2233.00000 22505.300 -20.681 -120.894 0.842 -0.003 -0.003 0.004 2.64809E-06 3.02871E-06 2.38311E-06
2233.00000 22505.400 -20.681 -120.894 0.842 -0.004 -0.002 0.006 2.64090E-06 3.01497E-06 2.37878E-06
2233.00000 22505.500 -20.681 -120.894 0.842 -0.003 -0.003 0.005 2.63370E-06 3.00126E-06 2.37445E-06
2233.00000 22505.600 -20.681 -120.894 0.842 0.001 -0.001 -0.000 2.62648E-06 2.98756E-06 2.37011E-06
2233.00000 22505.700 -20.681 -120.894 0.842 0.002 0.001 -0.001 2.61925E-06 2.97388E-06 2.36577E-06
2233.00000 22505.800 -20.681 -120.894 0.842 -0.000 -0.000 -0.002 2.61200E-06 2.96023E-06 2.36142E-06
2233.00000 22505.900 -20.681 -120.894 0.842 -0.004 -0.002 0.004 2.60474E-06 2.94660E-06 2.35706E-06
2233.00000 22506.000 -20.681 -120.894 0.842 -0.004 -0.003 0.006 2.59746E-06 2.93299E-06 2.35270E-06
2233.00000 22506.100 -20.681 -120.894 0.842 -0.002 -0.002 0.006 2.59251E-06 2.92238E-06 2.34973E-06
2233.00000 22506.200 -20.681 -120.894 0.842 0.002 -0.000 0.001 2.58755E-06 2.91178E-06 2.34676E-06
2233.00000 22506.300 -20.681 -120.894 0.842 0.002 0.001 -0.002 2.58258E-06 2.90120E-06 2.34378E-06
2233.00000 22506.400 -20.681 -120.894 0.842 -0.001 0.000 -0.000 2.57760E-06 2.89064E-06 2.34080E-06
2233.00000 22506.500 -20.681 -120.894 0.842 -0.004 -0.003 0.003 2.57261E-06 2.88008E-06 2.33781E-06
2233.00000 22506.600 -20.681 -120.894 0.842 -0.005 -0.003 0.007 2.56762E-06 2.86954E-06 2.33482E-06
2233.00000 22506.700 -20.681 -120.894 0.842 -0.002 -0.001 0.004 2.56261E-06 2.85902E-06 2.33182E-06
2233.00000 22506.800 -20.681 -120.894 0.842 0.001 -0.001 -0.001 2.55759E-06 2.84850E-06 2.32882E-06
2233.00000 22506.900 -20.681 -120.894 0.842 0.002 -0.000 0.001 2.55257E-06 2.83800E-06 2.32582E-06
2233.00000 22507.000 -20.681 -120.894 0.842 0.001 0.000 -0.000 2.54754E-06 2.82752E-06 2.32281E-06
2233.00000 22507.100 -20.681 -120.894 0.842 -0.002 -0.000 0.003 2.54414E-06 2.81925E-06 2.32075E-06
2233.00000 22507.200 -20.681 -120.894 0.842 -0.005 -0.004 0.004 2.54075E-06 2.81100E-06 2.31869E-06
2233.00000 22507.300 -20.681 -120.894 0.842 -0.004 -0.002 0.004 2.53735E-06 2.80275E-06 2.31662E-06
2233.00000 22507.400 -20.681 -120.894 0.842 -0.001 -0.002 0.003 2.53394E-06 2.79451E-06 2.31455E-06
2233.00000 22507.500 -20.681 -120.894 0.842 0.003 -0.001 -0.000 2.53053E-06 2.78628E-06 2.31248E-06
2233.00000 22507.600 -20.681 -120.894 0.842 0.002 0.001 -0.002 2.52711E-06 2.77806E-06 2.31040E-06
2233.00000 22507.700 -20.681 -120.894 0.842 -0.003 -0.001 0.000 2.52368E-06 2.76985E-06 2.30833E-06
2233.00000 22507.800 -20.681 -120.894 0.842 -0.005 -0.003 0.005 2.52025E-06 2.76164E-06 2.30624E-06
2233.00000 22507.900 -20.681 -120.894 0.842 -0.003 -0.003 0.007 2.51681E-06 2.75345E-06 2.30416E-06
2233.00000 22508.000 -20.681 -120.894 0.842 -0.000 -0.001 0.003 2.51337E-06 2.74526E-06 2.30207E-06
2233.00000 22508.100 -20.681 -120.894 0.842 0.001 0.000 -0.000 2.51110E-06 2.73877E-06 2.30063E-06
2233.00000 22508.200 -20.681 -120.894 0.842 0.001 0.001 -0.003 2.50883E-06 2.73228E-06 2.29919E-06
2233.00000 22508.300 -20.681 -120.894 0.842 -0.001 -0.001 0.002 2.50655E-06 2.72579E-06 2.29775E-06
2233.00000 22508.400 -20.680 -120.893 0.842 -0.004 -0.003 0.005 2.50427E-06 2.71932E-06 2.29630E-06
2233.00000 22508.500 -20.680 -120.893 0.842 -0.004 -0.003 0.006 2.50198E-06 2.71284E-06 2.29485E-06
2233.00000 22508.600 -20.680 -120.893 0.842 -0.003 -0.001 0.002 2.49970E-06 2.70638E-06 2.29340E-06
2233.00000 22508.700 -20.681 -120.894 0.842 0.000 -0.000 -0.001 2.49740E-06 2.69992E-06 2.29195E-06
2233.00000 22508.800 -20.681 -120.894 0.842 0.002 0.000 -0.000 2.49511E-06 2.69346E-06 2.29049E-06
2233.00000 22508.900 -20.681 -120.894 0.842 0.000 0.000 -0.001 2.49281E-06 2.68701E-06 2.28904E-06
2233.00000 22509.000 -20.681 -120.894 0.842 -0.003 -0.001 0.003 2.49050E-06 2.68057E-06 2.28758E-06
2233.00000 22509.100 -20.681 -120.894 0.842 -0.004 -0.002 0.004 2.48903E-06 2.67545E-06 2.28656E-06
2233.00000 22509.200 -20.681 -120.894 0.842 -0.002 -0.003 0.005 2.48756E-06 2.67033E-06 2.28554E-06
2233.00000 22509.300 -20.680 -120.893 0.842 -0.002 -0.002 0.003 2.48608E-06 2.66521E-06 2.28451E-06
2233.00000 22509.400 -20.680 -120.893 0.842 0.001 0.001 0.001 2.48461E-06 2.66010E-06 2.28349E-06
2233.00000 22509.500 -20.679 -120.893 0.842 0.002 0.001 -0.001 2.48312E-06 2.65499E-06 2.28246E-06
2233.00000 22509.600 -20.680 -120.893 0.842 0.002 -0.001 -0.002 2.48164E-06 2.64989E-06 2.28144E-06
2233.00000 22509.700 -20.680 -120.893 0.842 -0.002 -0.001 0.001 2.48016E-06 2.64479E-06 2.28041E-06
2233.00000 22509.800 -20.681 -120.894 0.842 -0.005 -0.002 0.006 2.47867E-06 2.63969E-06 2.27938E-06
2233.00000 22509.900 -20.681 -120.894 0.842 -0.002 -0.002 0.005 2.47718E-06 2.63460E-06 2.27835E-06
2233.00000 22510.000 -20.681 -120.894 0.842 0.000 -0.001 0.002 2.47569E-06 2.62951E-06 2.27731E-06
2233.00000 22510.100 -20.681 -120.894 0.842 0.001 0.001 -0.003 2.47477E-06 2.62547E-06 2.27658E-06
2233.00000 22510.200 -20.680 -120.893 0.842 0.001 0.001 -0.002 2.47384E-06 2.62142E-06 2.27585E-06
2233.00000 22510.300 -20.679 -120.893 0.842 -0.001 -0.001 0.002 2.47292E-06 2.61738E-06 2.27512E-06
2233.00000 22510.400 -20.679 -120.893 0.842 -0.005 -0.001 0.003 2.47199E-06 2.61335E-06 2.27438E-06
2233.00000 22510.500 -20.679 -120.893 0.842 -0.005 -0.003 0.005 2.47107E-06 2.60931E-06 2.27365E-06
2233.00000 22510.600 -20.679 -120.893 0.842 -0.001 -0.001 0.004 2.47014E-06 2.60528E-06 2.27291E-06
2233.00000 22510.700 -20.679 -120.893 0.842 0.003 0.001 -0.001 2.46921E-06 2.60125E-06 2.27217E-06
2233.00000 22510.800 -20.680 -120.893 0.842 0.001 0.001 0.000 2.46828E-06 2.59722E-06 2.27143E-06
2233.00000 22510.900 -20.681 -120.894 0.842 0.000 -0.000 -0.001 2.46734E-06 2.59320E-06 2.27069E-06
2233.00000 22511.000 -20.681 -120.894 0.842 -0.002 -0.002 0.001 2.46641E-06 2.58917E-06 2.26995E-06
2233.00000 22511.100 -20.681 -120.894 0.842 -0.006 -0.002 0.006 2.46585E-06 2.58599E-06 2.26942E-06
2233.00000 22511.200 -20.680 -120.893 0.842 -0.005 -0.002 0.006 2.46529E-06 2.58280E-06 2.26888E-06
